id	name	lat	lon	capital	code	pop
2012655	Zarechnyy	51.8493	107.5210	0	PPLX	9
2023377	Ivolginsk	51.7492	107.2837	0	PPL	7
2016334	Sokol	51.8004	107.4444	0	PPL	5
2016205	Sotnikovo	51.8845	107.4825	0	PPL	4
2017128	Nizhniy Sayantuy	51.7375	107.5131	0	PPL	1
