id	name	lat	lon	capital	code	pop
1689554	San Jose	9.8006	118.7569	0	PPL	6
1710559	Irahuan	9.8080	118.6919	0	PPL	4
1684463	Tagburos	9.8286	118.7319	0	PPL	4
1729456	Bacungan	9.9106	118.7022	0	PPL	3
1728823	Baheli	10.0137	118.7729	0	PPL	2
