id	name	lat	lon	capital	code	pop
1269227	Jānsath	29.3250	77.8504	0	PPL	19
1264989	Lāwar Khās	29.1109	77.7777	0	PPL	19
1260313	Parīchhatgarh	28.9784	77.9342	0	PPL	18
1259818	Phalauda	29.1882	77.8300	0	PPL	18
1256713	Shāhpur	29.3501	77.5516	0	PPL	18
1256003	Sisauli	29.4139	77.4689	0	PPL	15
1254513	Tīkri	29.2291	77.3548	0	PPL	13
1277795	Bahsūma	29.2006	77.9722	0	PPL	11
1273371	Daurāla	29.1134	77.7047	0	PPL	10
