id	name	lat	lon	capital	code	pop
1257775	Saidpur	28.6109	77.9090	0	PPL	14
1273534	Dankaur	28.3512	77.5551	0	PPL	13
1266892	Kharkhauda	28.8364	77.7416	0	PPL	13
1271948	Far카dnagar	28.7692	77.6293	0	PPL	11
1261262	Niw훮ri	28.8761	77.5382	0	PPL	10
1275635	B카l훮spur	28.3913	77.6242	0	PPL	8
1278051	Babugarh	28.7235	77.8468	0	PPL	7
