id	name	lat	lon	capital	code	pop
1269809	Iglās	27.7110	77.9397	0	PPL	13
1259082	Rabūpura	28.2515	77.6025	0	PPL	13
1269548	Jahāngīrpur	28.1792	77.7050	0	PPL	10
1261968	Nandgaon	27.7110	77.3865	0	PPL	10
1270252	Hasanpur	27.9694	77.4954	0	PPL	9
1277716	Bājna	27.8979	77.6784	0	PPL	7
