id	name	lat	lon	capital	code	pop
1262414	Mursān	27.5779	77.9409	0	PPL	12
1277614	Baldev	27.4068	77.8221	0	PPL	10
1276857	Barsāna	27.6480	77.3764	0	PPL	9
1271956	Farah	27.3208	77.7618	0	PPL	9
1264490	Mahāban	27.4326	77.7434	0	PPL	9
1259072	Rādhākund	27.5243	77.4910	0	PPL	6
1276419	Beswān	27.6379	77.8802	0	PPL	5
1271059	Gokul	27.4393	77.7202	0	PPL	4
1273358	Dayāl Bāgh	27.2212	78.0109	0	PPL	3
