id	name	lat	lon	capital	code	pop
1253357	Vāsudevanallūr	9.2417	77.4118	0	PPL	19
1268310	Kalugumalai	9.1494	77.7057	0	PPL	15
1271984	Ettaiyapuram	9.1441	77.9907	0	PPL	12
1268355	Kallupatti	9.7167	77.8667	0	PPL	9
1259898	Peraiyur	9.7358	77.7896	0	PPL	9
1274006	Cholapuram	9.3519	77.5684	0	PPL	6
1272074	Elāyirampannai	9.2703	77.8249	0	PPL	6
