id	name	lat	lon	capital	code	pop
5275871	Tomah	43.9786	-90.5040	0	PPL	9
5262113	Mauston	43.7972	-90.0773	0	PPLA2	4
5264447	New Lisbon	43.8791	-90.1654	0	PPL	2
5256376	Hillsboro	43.6522	-90.3440	0	PPL	1
5251866	Elroy	43.7408	-90.2724	0	PPL	1
