id	name	lat	lon	capital	code	pop
8247399	Chyst’	54.2698	27.1067	0	PPL	5
624805	Narach	54.5652	26.7314	0	PPL	3
626610	Krasnaye	54.2438	27.0758	0	PPL	2
627878	Iĺja	54.4167	27.2958	0	PPL	1
624612	Nasilava	54.3044	26.7821	0	PPL	1
