id	name	lat	lon	capital	code	pop
730866	Isperih	43.7167	26.8333	0	PPL	9
731818	Dulovo	43.8167	27.1500	0	PPL	6
726474	Tervel	43.7479	27.4091	0	PPLA2	6
731415	Glavinitsa	43.9167	26.8333	0	PPL	2
733679	Alfatar	43.9453	27.2875	0	PPLA2	1
730651	Kaolinovo	43.6167	27.1167	0	PPL	1
727175	Sitovo	44.0273	27.0198	0	PPLA2	1
