id	name	lat	lon	capital	code	pop
730559	Karnobat	42.6500	26.9833	0	PPL	19
731822	Dalgopol	43.0500	27.3500	0	PPL	5
730680	Kameno	42.5708	27.2987	0	PPL	4
727025	Smyadovo	43.0667	27.0167	0	PPL	4
726629	Sungurlare	42.7667	26.7833	0	PPL	3
727547	Ruen	42.8000	27.2833	0	PPL	2
