id	name	lat	lon	capital	code	pop
316726	Dikili	39.0710	26.8902	0	PPLA2	14
307786	Kınık	39.0872	27.3833	0	PPLA2	10
319487	Çandarlı	38.9350	26.9340	0	PPLA3	4
296943	Yenişakran	38.8864	27.0669	0	PPL	3
295921	Zeytindağ	38.9672	27.0722	0	PPLA3	3
