id	name	lat	lon	capital	code	pop
3093028	Lubawa	53.5043	19.7497	0	PPLA3	9
763165	Olsztynek	53.5837	20.2847	0	PPLA3	7
3086574	Rybno	53.3835	19.9323	0	PPL	2
773478	Dąbrówno	53.4341	20.0353	0	PPLA3	1
772218	Gietrzwałd	53.7462	20.2374	0	PPL	1
772220	Gierzwałd	53.5413	20.0887	0	PPLA3	0
