id	name	lat	lon	capital	code	pop
781443	Tepelenë	40.2958	20.0192	0	PPLA2	11
782070	Përmet	40.2336	20.3517	0	PPLA2	10
3185377	Himarë	40.1017	19.7447	0	PPLA3	4
3184743	Memaliaj	40.3517	19.9803	0	PPLA3	4
782843	Këlcyrë	40.3131	20.1894	0	PPLA3	4
782523	Libohovë	40.0311	20.2631	0	PPLA3	3
363383	Delvinë	39.9511	20.0978	0	PPLA2	3
