id	name	lat	lon	capital	code	pop
2176071	Berri	-34.2811	140.5996	0	PPL	4
2176829	Barmera	-34.2556	140.4615	0	PPL	2
2059362	Waikerie	-34.1818	139.9855	0	PPL	2
2161313	Kingston	-34.2333	140.3500	0	PPL	1
2157247	Monash	-34.2384	140.5613	0	PPL	1
