id	name	lat	lon	capital	code	pop
2693301	Lysekil	58.2743	11.4358	0	PPLA2	7
2698697	Kungshamn	58.3631	11.2594	0	PPLA2	3
2694522	Ljungskile	58.2245	11.9201	0	PPL	3
2719670	Brastad	58.3833	11.4833	0	PPL	2
2706619	Henån	58.2385	11.6760	0	PPLA2	2
2704245	Hunnebostrand	58.4413	11.3032	0	PPL	2
2716324	Ellös	58.1833	11.4667	0	PPL	1
2687384	Ödsmål	58.1000	11.8500	0	PPL	1
2670478	Svanesund	58.1429	11.8182	0	PPL	1
