id	name	lat	lon	capital	code	pop
643492	Oulu	65.0124	25.4682	0	PPLA	209
638936	Rovaniemi	66.5000	25.7167	0	PPLA	64
654899	Kajaani	64.2273	27.7285	0	PPLA	36
653281	Kemi	65.7364	24.5637	0	PPLA3	22
640276	Raahe	64.6833	24.4833	0	PPLA3	22
634093	Tornio	65.8481	24.1466	0	PPLA3	21
658629	Haukipudas	65.1765	25.3523	0	PPL	17
