id	name	lat	lon	capital	code	pop
655194	Jyväskylä	62.2415	25.7209	0	PPLA	144
650224	Kuopio	62.8924	27.6770	0	PPLA	121
637219	Seinäjoki	62.7945	22.8282	0	PPLA	64
646005	Mikkeli	61.6886	27.2723	0	PPLA	52
651943	Kokkola	63.8385	23.1307	0	PPLA	47
656820	Iisalmi	63.5592	27.1907	0	PPLA3	22
632370	Varkaus	62.3153	27.8730	0	PPLA3	22
636947	Siilinjärvi	63.0833	27.6667	0	PPLA3	20
656130	Jakobstad	63.6749	22.7026	0	PPLA3	19
648738	Laukaa	62.4141	25.9519	0	PPLA3	17
656083	Jämsä	61.8642	25.1900	0	PPLA3	15
