id	name	lat	lon	capital	code	pop
363807	Winejok	9.0122	27.5708	0	PPL	300
363885	Wau	7.7011	27.9897	0	PPLA	127
371712	Kuacjok	8.3028	27.9800	0	PPLA	78
374739	Gogrial	8.5332	28.1004	0	PPL	44
364367	Aweil	8.7619	27.3919	0	PPLA	38
379102	Al Mijlad	11.0333	27.7333	0	PPL	19
373130	Kafia Kingi	9.2735	24.4170	0	PPL	16
