id	name	lat	lon	capital	code	pop
209228	Mbuji-Mayi	-6.1360	23.5898	0	PPLA	874
922741	Likasi	-10.9830	26.7384	0	PPL	422
922773	Kolwezi	-10.7148	25.4667	0	PPLA2	418
207570	Mwene-Ditu	-7.0091	23.4528	0	PPL	189
216449	Gandajika	-6.7450	23.9533	0	PPL	154
214614	Kamina	-8.7351	24.9980	0	PPLA	73
215527	Kabinda	-6.1379	24.4818	0	PPL	59
217834	Bukama	-9.2044	25.8547	0	PPL	38
923058	Kambove	-10.8735	26.5975	0	PPL	36
215668	Kabalo	-6.0526	26.9143	0	PPL	29
