id	name	lat	lon	capital	code	pop
3666395	Urrao	6.3170	-76.1342	0	PPL	18
3687677	Cañasgordas	6.7499	-76.0254	0	PPLA2	13
3666436	Uramita	6.8994	-76.1742	0	PPLA2	2
3690582	Abriaquí	6.6315	-76.0644	0	PPLA2	1
3688072	Caicedo	6.4051	-75.9826	0	PPLA2	1
3682030	Giraldo	6.6801	-75.9526	0	PPLA2	1
