id	name	lat	lon	capital	code	pop
3695757	Lamas	-6.4167	-76.5333	0	PPLA3	13
3698414	Chazuta	-6.5709	-76.1375	0	PPLA3	8
12157171	Tabaloslos	-6.3856	-76.6334	0	PPL	7
3693646	Picota	-6.9203	-76.3314	0	PPLA3	6
3763294	Buenos Aires	-6.7942	-76.3271	0	PPLA3	0
3763237	Zapatero	-6.5310	-76.4913	0	PPLA3	0
3692350	San Pablo	-6.8081	-76.5731	0	PPLA3	0
