id	name	lat	lon	capital	code	pop
3519570	San Ciro de Acosta	21.6507	-99.8192	0	PPLA2	7
3520427	Rayón	21.8433	-99.6426	0	PPLA2	5
3516396	Tamasopo	21.9243	-99.3936	0	PPL	4
3520943	Purísima de Arista	21.3109	-99.5122	0	PPL	2
3532686	Arroyo Seco	21.5478	-99.6883	0	PPLA2	1
3530354	Concá	21.4448	-99.6358	0	PPL	1
