id	name	lat	lon	capital	code	pop
1272832	Dharamsala	32.2201	76.3201	0	PPL	19
1252714	Yol	32.1642	76.1962	0	PPL	11
1268084	K훮ngar	32.0913	76.2627	0	PPL	9
1262162	Nagrota	32.0571	76.0914	0	PPL	6
1265969	Kotla	32.2500	76.0333	0	PPL	5
1260784	P훮lampur	32.1145	76.5568	0	PPL	4
6941535	Chowari	32.4319	76.0120	0	PPL	3
1273954	Chu훮ri Kh훮s	32.4306	76.0143	0	PPL	3
1273377	Daulatpur	32.0562	76.2610	0	PPL	3
