id	name	lat	lon	capital	code	pop
1279115	Aklera	24.4129	76.5672	0	PPL	19
1266731	Khilchipur	24.0394	76.5780	0	PPL	16
1255425	Sunel	24.3707	75.9571	0	PPL	15
1255301	Susner	23.9467	76.0883	0	PPL	14
1259540	Pirāwa	24.1551	76.0273	0	PPL	11
1277699	Bakāni	24.2862	76.2371	0	PPL	8
1264653	Māchalpur	24.1277	76.3167	0	PPL	8
