id	name	lat	lon	capital	code	pop
1278393	Arkalgūd	12.7617	76.0603	0	PPL	15
1266222	Konanūr	12.6302	76.0504	0	PPL	9
1278953	Alūr	12.9780	75.9909	0	PPL	6
1270898	Gorūr	12.8230	76.0646	0	PPL	6
1256428	Srāvana Belgola	12.8574	76.4889	0	PPL	5
