id	name	lat	lon	capital	code	pop
4465291	Elroy	35.3427	-77.9086	0	PPL	3
4474627	La Grange	35.3068	-77.7880	0	PPL	2
4469281	Grifton	35.3727	-77.4375	0	PPL	2
4457342	Brogden	35.2927	-78.0344	0	PPL	2
4492329	Snow Hill	35.4515	-77.6811	0	PPLA2	1
4487941	Richlands	34.8993	-77.5466	0	PPL	1
4455473	Beulaville	34.9238	-77.7739	0	PPL	1
4474147	Kenansville	34.9624	-77.9622	0	PPLA2	0
