id	name	lat	lon	capital	code	pop
6385248	Urpay	-8.3479	-77.3918	0	PPLA3	0
6384830	Parcoy	-8.0350	-77.4819	0	PPLA3	0
3699557	Aricapampa	-7.8061	-77.7202	0	PPLA3	0
3696435	Huandoval	-8.3274	-77.9729	0	PPLA3	0
3696295	Huaylillas	-8.1868	-77.3448	0	PPLA3	0
3693042	Quiches	-8.3945	-77.4935	0	PPLA3	0
3691780	Sitabamba	-8.0233	-77.7315	0	PPLA3	0
