id	name	lat	lon	capital	code	pop
3946280	Cajacay	-10.1566	-77.4421	0	PPLA3	0
3942377	Congas	-10.3361	-77.4420	0	PPLA3	0
3938907	Huayllapampa	-10.0552	-77.5352	0	PPLA3	0
3936346	Llacllin	-10.0702	-77.6223	0	PPLA3	0
3935353	Marca	-10.0880	-77.4750	0	PPLA3	0
3934109	Ocros	-10.4059	-77.3960	0	PPLA3	0
