id	name	lat	lon	capital	code	pop
2208330	Whakatane	-37.9586	176.9854	0	PPLA	18
2188942	Kawerau	-38.1000	176.7000	0	PPL	7
2193687	Awakeri	-38.0000	176.9000	0	PPL	2
2191451	Edgecumbe	-37.9833	176.8333	0	PPL	1
2181951	Taneatua	-38.0667	177.0167	0	PPL	1
