id	name	lat	lon	capital	code	pop
5028259	Goodview	44.0625	-91.6957	0	PPL	4
5044374	Saint Charles	43.9694	-92.0643	0	PPL	3
5019936	Caledonia	43.6347	-91.4968	0	PPLA2	2
5276084	Trempealeau	44.0055	-91.4421	0	PPL	1
5044055	Rushford	43.8083	-91.7529	0	PPL	1
5042330	Preston	43.6702	-92.0832	0	PPLA2	1
5034545	Lewiston	43.9844	-91.8693	0	PPL	1
