id	name	lat	lon	capital	code	pop
4387496	Fulton	38.8467	-91.9480	0	PPLA2	12
4398103	Mexico	39.1698	-91.8829	0	PPLA2	11
4412896	Vandalia	39.3109	-91.4885	0	PPL	4
4398894	Montgomery City	38.9775	-91.5049	0	PPLA2	2
4413978	Wellsville	39.0720	-91.5702	0	PPL	1
