id	name	lat	lon	capital	code	pop
4105435	Cherokee Village	36.2978	-91.5160	0	PPL	4
4411477	Thayer	36.5245	-91.5382	0	PPL	2
4115334	Horseshoe Bend	36.2292	-91.7643	0	PPL	2
4129962	Salem	36.3712	-91.8226	0	PPLA2	1
4121256	Melbourne	36.0595	-91.9085	0	PPLA2	1
4114673	Highland	36.2759	-91.5240	0	PPL	1
4099837	Ash Flat	36.2240	-91.6085	0	PPLA2	1
