id	name	lat	lon	capital	code	pop
4297581	Lawrenceburg	38.0373	-84.8966	0	PPLA2	11
4312057	Versailles	38.0526	-84.7300	0	PPLA2	9
4294180	Harrodsburg	37.7623	-84.8433	0	PPLA2	8
4313628	Wilmore	37.8620	-84.6616	0	PPL	6
4301229	Monticello	37.9923	-84.5502	0	PPL	6
4301702	Mount Vernon	38.0256	-84.4952	0	PPL	2
4296082	Jackson	37.8251	-84.8708	0	PPL	2
4300739	Midway	38.1509	-84.6838	0	PPL	1
