id	name	lat	lon	capital	code	pop
2026609	Blagoveshchensk	50.2796	127.5405	0	PPLA	225
2036597	Jiagedaqi	50.4167	124.1167	0	PPL	135
2036973	Heihe	50.2441	127.4902	0	PPL	109
2035601	Nenjiang	49.1741	125.2197	0	PPLA3	87
2026895	Belogorsk	50.9164	128.4773	0	PPL	67
2015833	Svobodnyy	51.3753	128.1410	0	PPL	61
2034615	Tahe	52.3215	124.6976	0	PPLA3	60
2016701	Shimanovsk	52.0057	127.6776	0	PPL	21
