id	name	lat	lon	capital	code	pop
1835848	Seoul	37.5660	126.9784	1	PPLC	10349
1871859	Pyongyang	39.0339	125.7543	1	PPLC	3222
1843564	Incheon	37.4565	126.7052	0	PPLA	2954
1835553	Suwon	37.2911	127.0089	0	PPLA	1241
1842485	Goyang-si	37.6564	126.8350	0	PPLA2	1073
1897000	Seongnam-si	37.4386	127.1378	0	PPL	1031
1838716	Bucheon-si	37.4989	126.7831	0	PPL	850
1845604	Cheongju-si	36.6372	127.4897	0	PPLA	846
1846918	Ansan-si	37.3236	126.8219	0	PPL	716
1845759	Cheonan	36.8065	127.1522	0	PPL	666
1843847	Hwaseong-si	37.2068	126.8169	0	PPL	640
2037886	Dandong	40.1292	124.3947	0	PPL	631
1846898	Anyang-si	37.3925	126.9269	0	PPL	595
1877449	Hamhŭng	39.9183	127.5364	0	PPLA	559
1833788	Uijeongbu-si	37.7415	127.0474	0	PPL	479
1873757	Namp’o	38.7375	125.4078	0	PPLA2	455
1869012	Sunch’ŏn	39.4317	125.9328	0	PPLA3	437
1838343	Pyeongtaek	36.9947	127.0889	0	PPL	364
1948005	Gwangmyeong	37.4772	126.8664	0	PPL	357
1877030	Hŭngnam	39.8420	127.6321	0	PPL	346
1876373	Kaesŏng	37.9708	126.5544	0	PPLA2	338
1833105	Wŏnju	37.3514	127.9453	0	PPL	332
1866923	Wŏnsan	39.1528	127.4436	0	PPLA	329
1870883	Sariwŏn	38.5072	125.7558	0	PPLA	310
2040893	Sinŭiju	40.1006	124.3981	0	PPLA	288
1842030	Gunpo	37.3675	126.9469	0	PPL	286
1897007	Hanam	37.5400	127.2056	0	PPL	254
1877615	Haeju	38.0406	125.7147	0	PPLA	222
1845136	Chuncheon	37.8747	127.7342	0	PPLA	209
1845033	Chungju	36.9767	127.9287	0	PPL	209
2043572	Kanggye	40.9695	126.5852	0	PPLA	209
1843702	Icheon-si	37.2792	127.4425	0	PPL	196
1841988	Guri-si	37.5986	127.1394	0	PPL	195
1843137	Gangneung	37.7527	128.8724	0	PPLA3	180
1832847	Yangju	37.8331	127.0617	0	PPL	179
1839652	Osan	37.1522	127.0706	0	PPL	158
1869446	Songnim-ni	38.7635	125.6410	0	PPL	152
2037411	Fengcheng	40.4536	124.0717	0	PPL	120
1897118	Hwado	37.6525	127.3075	0	PPL	106
1892823	Donghae City	37.5439	129.1069	0	PPL	101
1871871	P’yŏngsŏng	39.2464	125.8719	0	PPLA	100
1839726	Asan	36.7836	127.0042	0	PPL	97
1912209	Wabu	37.5897	127.2203	0	PPL	96
1897122	Namyangju	37.6367	127.2142	0	PPL	90
1844174	Hongseong	36.6009	126.6650	0	PPLA	89
1836553	Sokcho	38.2070	128.5918	0	PPLA2	89
1832384	Yeongju	36.8217	128.6308	0	PPL	84
1832830	Yangp'yŏng	37.4897	127.4906	0	PPL	83
1841810	Gwangju	37.4100	127.2572	0	PPL	81
2038854	Yuktae-dong	40.0247	128.1597	0	PPL	76
1844191	Hongch’ŏn	37.6918	127.8857	0	PPL	75
1835895	Seosan	36.7817	126.4522	0	PPL	74
2044050	Hongwŏn	40.0253	127.9558	0	PPL	70
2036283	Kuandian	40.7286	124.7847	0	PPL	70
1846912	Anseong	37.0108	127.2703	0	PPL	69
1873172	Ongjin	37.9347	125.3619	0	PPL	64
1896953	Pubal	37.2917	127.5078	0	PPL	63
2043484	Kilju	40.9642	129.3278	0	PPL	63
1840179	Kosong	38.3788	128.4676	0	PPL	62
1846095	Chinch'ŏn	36.8567	127.4433	0	PPL	60
2036241	Langtoucun	40.0407	124.3353	0	PPL	59
1843082	Gapyeong	37.8310	127.5106	0	PPL	55
1879487	Chaeryŏng-ŭp	38.3992	125.6156	0	PPLA2	53
2039623	Uiju	40.1994	124.5317	0	PPL	50
1879613	Anju	39.6178	125.6647	0	PPL	50
1835515	T’aebaek	37.1759	128.9889	0	PPL	48
1842800	Koesan	36.8108	127.7947	0	PPL	44
1840862	Munsan	37.8594	126.7850	0	PPL	43
1838069	Santyoku	37.4406	129.1708	0	PPL	42
1832771	Yesan	36.6776	126.8427	0	PPL	39
1879029	Changyŏn	38.2508	125.0961	0	PPL	39
1868998	Sŭngho 1-tong	38.9914	125.9778	0	PPL	39
1832743	Yeoju	37.2958	127.6339	0	PPL	37
1869021	Sunan	39.2032	125.6931	0	PPL	36
1876873	Hwangju-ŭp	38.6703	125.7761	0	PPL	35
1834885	Tangjin	36.8944	126.6297	0	PPL	32
1879672	Anbyŏn-ŭp	39.0425	127.5239	0	PPL	31
1875107	Kusŏng	39.9811	125.2447	0	PPL	30
1836208	Seonghwan	36.9156	127.1314	0	PPL	29
1878389	Chŏngju	39.6933	125.2103	0	PPL	29
1876153	Kangdong-ŭp	39.1425	126.0961	0	PPL	28
2043677	Iwŏn-ŭp	40.3231	128.6553	0	PPL	26
1843163	Ganghwa-gun	37.7472	126.4856	0	PPLA3	25
1832257	Neietsu	37.1845	128.4682	0	PPL	25
1877046	Hŭkkyo-ri	38.7986	125.7919	0	PPL	25
1832909	Yanggu	38.1058	127.9894	0	PPL	24
1875632	Kosan	38.8558	127.4181	0	PPL	24
1844045	Hwacheon	38.1071	127.7063	0	PPLA2	23
1835096	Taesal-li	36.9714	126.4542	0	PPL	23
1866569	Yŏnan-ŭp	37.9089	126.1611	0	PPL	22
2042249	Yŏnggwang-ŭp	40.0183	127.4547	0	PPL	21
1877148	Hoeyang	38.7103	127.5983	0	PPL	21
1875588	Kowŏn-ŭp	39.4381	127.2431	0	PPL	21
1845142	Jumunjin	37.8914	128.8258	0	PPL	20
1867927	T’ongch’ŏn-ŭp	38.9539	127.8917	0	PPL	20
1879682	Anak	38.5108	125.4942	0	PPL	19
1877872	Chunghwa	38.8639	125.8000	0	PPL	19
1875506	Kujang-ŭp	39.8672	126.0303	0	PPL	19
1871484	Samho-rodongjagu	39.9475	127.8711	0	PPL	19
1870413	Sil-li	39.4947	125.4736	0	PPL	19
2041533	Sakchu-ŭp	40.3894	125.0467	0	PPL	18
1870434	Sinmak	38.4167	126.2333	0	PPL	18
1879544	Ayang-ni	38.2472	125.7948	0	PPL	16
1870742	Sinanju	39.5981	125.6097	0	PPL	15
