id	name	lat	lon	capital	code	pop
1863625	Ginoza	26.4829	127.9778	0	PPL	5
6822151	Kunigami	26.7589	128.1630	0	PPL	4
1854640	ÅŒgimi	26.7012	128.1173	0	PPL	3
6822150	Iheya	27.0190	127.9744	0	PPL	1
1851230	Taira	26.6315	128.1512	0	PPL	1
