id	name	lat	lon	capital	code	pop
1261186	North Guwāhāti	26.1975	91.7202	0	PPL	17
1270522	Hājo	26.2452	91.5252	0	PPL	15
1261208	Nongpoh	25.9023	91.8769	0	PPL	14
1255910	Soalkuchi	26.1681	91.5711	0	PPL	13
1272508	Dispur	26.1356	91.8007	0	PPLA	10
1260769	Palāsbāri	26.1239	91.5397	0	PPL	4
