id	name	lat	lon	capital	code	pop
1619437	Bang Krathum	16.5783	100.3003	0	PPLA2	18
1619400	Bang Mun Nak	16.0278	100.3792	0	PPLA2	15
1605156	Wang Sai Phun	16.3885	100.5380	0	PPLA2	8
1152423	Lan Krabue	16.6000	99.8489	0	PPLA2	7
1620390	Bueng Na Rang	16.1712	100.1253	0	PPLA2	4
