id	name	lat	lon	capital	code	pop
707251	Kaharlyk	49.8590	30.8233	0	PPL	13
690773	Ukrainka	50.1432	30.7461	0	PPL	13
708784	Hlevakha	50.2742	30.3271	0	PPL	8
689017	Voronkiv	50.2223	30.8997	0	PPL	4
691305	Trypillia	50.1180	30.7814	0	PPL	3
692644	Stayky	50.0782	30.9038	0	PPL	2
701010	Myrivka	49.9297	30.6222	0	PPL	1
