id	name	lat	lon	capital	code	pop
2523942	Paceco	37.9803	12.5577	0	PPLA3	9
6534274	Valderice	38.0401	12.6151	0	PPLA3	6
8948909	Rilievo	37.9164	12.5406	0	PPL	2
2524780	Favignana	37.9295	12.3296	0	PPLA3	2
8949430	Tonnara di Bonagia	38.0631	12.5943	0	PPL	1
2524994	Ciavolo	37.7794	12.5377	0	PPL	1
2524286	Marausa	37.9417	12.5095	0	PPL	1
8949514	Salinagrande	37.9601	12.5114	0	PPLA3	0
2524815	Erice	38.0378	12.5878	0	PPLA3	0
