id	name	lat	lon	capital	code	pop
858701	Shamil’kala	42.6871	46.8685	0	PPLA2	7
568077	Chirkey	42.9613	46.9787	0	PPL	7
564764	Dubki	43.0212	46.8375	0	PPL	5
478963	Untsukul’	42.7115	46.7866	0	PPL	5
570683	Burtunay	42.9886	46.6303	0	PPL	4
563425	Erpeli	42.8058	46.9773	0	PPL	3
561472	Gimry	42.7597	46.8396	0	PPL	3
492596	Siukh	42.5999	46.5446	0	PPL	3
465019	Zandak	43.0571	46.4557	0	PPL	3
556198	Irganay	42.6465	46.9115	0	PPL	2
580621	Ashil’ta	42.7704	46.7299	0	PPL	1
