id	name	lat	lon	capital	code	pop
584871	Terter	40.3420	46.9316	0	PPLA	18
587379	Martakert	40.2113	46.8214	0	PPL	10
147774	XocalÄ±	39.9130	46.7903	0	PPLA	5
584747	Vank	40.0528	46.5442	0	PPL	1
148450	Askyaran	39.9391	46.8316	0	PPL	1
