id	name	lat	lon	capital	code	pop
147105	Şuşa	39.7601	46.7499	0	PPLA	18
148141	Jebrail	39.3992	47.0284	0	PPLA	8
148105	Hadrut	39.5200	47.0319	0	PPL	2
147625	Laçın	39.5988	46.5504	0	PPLA	2
174743	Tegh	39.5583	46.4805	0	PPL	2
147695	Qırmızı Bazar	39.6767	46.9512	0	PPL	1
174849	Khndzoresk	39.5057	46.4361	0	PPL	1
