id	name	lat	lon	capital	code	pop
3435330	Colonia Elisa	-26.9304	-59.5186	0	PPLA2	4
3435295	Colonias Unidas	-26.6983	-59.6315	0	PPL	4
3435688	Capitán Solari	-26.8022	-59.5609	0	PPL	2
3435399	Ciervo Petiso	-26.5804	-59.6309	0	PPL	1
3432466	Laguna Limpia	-26.4957	-59.6808	0	PPL	1
3430182	Pampa Almirón	-26.7004	-59.1233	0	PPL	1
