id	name	lat	lon	capital	code	pop
2244786	Tiadiaye	14.4167	-16.7000	0	PPL	14
2251688	Gandiaye	14.2333	-16.2667	0	PPL	13
2246780	Passi	13.9833	-16.2667	0	PPL	12
2252473	Diofior	14.1833	-16.6667	0	PPL	11
2251791	Foundiougne	14.1333	-16.4667	0	PPL	6
2245151	Soum	14.0667	-16.4833	0	PPL	5
2252899	Diakhao	14.4667	-16.3000	0	PPL	4
