id	name	lat	lon	capital	code	pop
1275836	Bhor	18.1486	73.8434	0	PPL	18
1269087	JejÅ«ri	18.2766	74.1601	0	PPL	14
1264816	Lohogaon	18.5992	73.9270	0	PPL	13
1256469	Shirwal	18.1506	73.9779	0	PPL	12
1266813	Khed	18.3381	73.8468	0	PPL	7
