id	name	lat	lon	capital	code	pop
1608136	Non Sung	15.1801	102.2570	0	PPLA2	18
1603235	Ban Huai Thalaeng	14.9833	102.6500	0	PPL	15
1608222	Nong Ki	14.6868	102.5380	0	PPLA2	13
1607716	Phimai	15.2232	102.4947	0	PPLA2	13
1608131	Non Thai	15.1958	102.0714	0	PPLA2	11
