id	name	lat	lon	capital	code	pop
499055	Samarskoye	46.9370	39.6881	0	PPL	10
548390	Kirovskaya	46.9748	40.0402	0	PPL	5
519033	Novobataysk	46.8981	39.7819	0	PPL	5
542125	Krasnoye	46.7373	39.5645	0	PPL	3
510539	Peshkovo	47.0187	39.3884	0	PPL	3
