id	name	lat	lon	capital	code	pop
470338	Vyselki	45.5813	39.6641	0	PPLA2	18
537235	Ladozhskaya	45.3090	39.9380	0	PPL	14
476417	Vasyurinskaya	45.1181	39.4240	0	PPL	12
509113	Platnirovskaya	45.3953	39.3842	0	PPL	11
840909	Dvubratskiy	45.2389	39.8050	0	PPL	10
542335	Krasnogvardeyskoye	45.1278	39.5725	0	PPLA2	9
550452	Khatukay	45.1907	39.6632	0	PPL	4
522810	Nekrasovskaya	45.1447	39.7487	0	PPL	4
519015	Novobeysugskaya	45.4719	39.8861	0	PPL	3
518652	Novolabinskaya	45.1096	39.8940	0	PPL	3
