id	name	lat	lon	capital	code	pop
877581	Nanyamba	-10.6833	39.8333	0	PPL	19
877391	Tandahimba	-10.7500	39.6333	0	PPL	17
878367	Kitama	-10.7167	39.7333	0	PPL	16
878121	Mahuta	-10.8667	39.4500	0	PPL	13
877588	Nanhyanga	-10.8000	39.5500	0	PPL	13
877631	Namikupa	-10.8333	39.6000	0	PPL	11
