id	name	lat	lon	capital	code	pop
474821	Verkhniy Tagil	57.3733	59.9556	0	PPL	12
1489125	Tsementnyy	57.4693	60.1536	0	PPL	5
535505	Levikha	57.5836	59.9003	0	PPL	3
1497780	Neyvo-Rudyanka	57.3444	60.1343	0	PPL	2
552161	Karpushikha	57.5017	59.8956	0	PPL	1
