id	name	lat	lon	capital	code	pop
3149512	Kopervik	59.2835	5.3067	0	PPLA2	11
3140621	Sæveland	59.2667	5.2000	0	PPL	7
3163443	Åkrehamn	59.2605	5.1869	0	PPL	5
3336591	Vedavågen	59.2948	5.2187	0	PPL	2
3205608	Vormedal	59.3561	5.3196	0	PPL	2
3158578	Eike	59.3983	5.3639	0	PPL	1
3133448	Tysvær	59.3320	5.4898	0	PPL	1
