id	name	lat	lon	capital	code	pop
2690061	Nättraby	56.2000	15.5167	0	PPL	3
2682155	Rödeby	56.2608	15.6214	0	PPL	3
2703349	Jämjö	56.1919	15.8412	0	PPL	2
2667904	Torsås	56.4125	15.9984	0	PPLA2	2
2722794	Bergkvara	56.3906	16.0727	0	PPL	1
