id	name	lat	lon	capital	code	pop
3080102	Złocieniec	53.5329	16.0113	0	PPLA3	13
3100139	Drawsko Pomorskie	53.5306	15.8097	0	PPL	11
3093158	Łobez	53.6392	15.6213	0	PPL	10
3082485	Węgorzyno	53.5410	15.5596	0	PPL	3
3097871	Ińsko	53.4361	15.5502	0	PPLA3	2
3091700	Mirosławiec	53.3407	16.0879	0	PPLA3	2
3082110	Wierzchowo	53.4601	16.0996	0	PPL	1
