id	name	lat	lon	capital	code	pop
3101660	Chojnów	51.2737	15.9366	0	PPLA3	14
3083632	Szprotawa	51.5656	15.5366	0	PPL	12
3101722	Chocianów	51.4187	15.9017	0	PPL	8
3087954	Przemków	51.5253	15.7944	0	PPL	6
7534656	Radwanice	51.5708	15.9480	0	PPL	2
3098267	Gromadka	51.3606	15.7645	0	PPLA3	2
3091780	Miłkowice	51.2560	16.0723	0	PPL	2
3098380	Grębocice	51.5991	16.1674	0	PPL	1
3090130	Olszanica	51.2067	15.8004	0	PPL	1
3080895	Zagrodno	51.1913	15.8653	0	PPLA3	1
