id	name	lat	lon	capital	code	pop
5278693	Weston	44.8908	-89.5476	0	PPL	15
5258916	Kronenwetter	44.8222	-89.5904	0	PPL	7
5269583	Rothschild	44.8872	-89.6201	0	PPL	5
5268742	Rib Mountain	44.9128	-89.6754	0	PPL	5
5263580	Mosinee	44.7930	-89.7032	0	PPL	4
5252203	Evergreen	44.8425	-89.6376	0	PPL	3
11395215	Maine	45.0272	-89.6904	0	PPL	2
5272378	Schofield	44.9097	-89.6046	0	PPL	2
5261788	Marathon	44.9291	-89.8404	0	PPL	1
5251521	Edgar	44.9272	-89.9635	0	PPL	1
5245685	Bevent	44.7705	-89.3896	0	PPL	1
