id	name	lat	lon	capital	code	pop
4893637	Georgetown	42.1397	-89.8287	0	PPL	3
4905572	Pecatonica	42.3139	-89.3593	0	PPL	2
4902955	Mount Morris	42.0503	-89.4312	0	PPL	2
4899135	Lake Summerset	42.4545	-89.3896	0	PPL	2
4832074	Lena	42.3795	-89.8223	0	PPL	2
4915497	Warren	42.4964	-89.9896	0	PPL	1
4902883	Mount Carroll	42.0950	-89.9782	0	PPLA2	1
4899287	Lanark	42.1022	-89.8334	0	PPL	1
4892818	Forreston	42.1261	-89.5793	0	PPL	1
4890327	Durand	42.4364	-89.3321	0	PPL	1
