id	name	lat	lon	capital	code	pop
4898433	Kewanee	41.2456	-89.9248	0	PPL	12
4906818	Princeton	41.3681	-89.4648	0	PPLA2	7
4895593	Henry	41.1114	-89.3565	0	PPL	2
4917218	Wyoming	41.0617	-89.7732	0	PPL	1
4913799	Toulon	41.0936	-89.8648	0	PPLA2	1
4898920	Lacon	41.0248	-89.4112	0	PPLA2	1
4889761	Depue	41.3242	-89.3067	0	PPL	1
4895580	Hennepin	41.2542	-89.3423	0	PPLA2	0
