id	name	lat	lon	capital	code	pop
4899822	Lincoln	40.1484	-89.3648	0	PPLA2	13
4905791	Petersburg	40.0117	-89.8482	0	PPLA2	2
4901390	Mason City	40.2023	-89.6982	0	PPL	2
4907505	Richmond	40.3609	-89.3690	0	PPL	1
4902370	Minier	40.4337	-89.3131	0	PPL	1
4900970	Manito	40.4259	-89.7793	0	PPL	1
4889700	Delavan	40.3725	-89.5473	0	PPL	1
4253179	Williamsville	39.9542	-89.5487	0	PPL	1
4232997	Athens	39.9609	-89.7240	0	PPL	1
