id	name	lat	lon	capital	code	pop
4408672	Sikeston	36.8767	-89.5879	0	PPL	16
4383857	Dexter	36.7959	-89.9579	0	PPL	7
4380997	Charleston	36.9209	-89.3506	0	PPLA2	5
4385054	East Prairie	36.7798	-89.3856	0	PPL	3
4401987	Oran	37.0851	-89.6554	0	PPL	1
4377531	Bloomfield	36.8859	-89.9293	0	PPLA2	1
4376632	Bernie	36.6689	-89.9687	0	PPL	1
4374502	Advance	37.1046	-89.9095	0	PPL	1
4376569	Benton	37.0978	-89.5626	0	PPLA2	0
