id	name	lat	lon	capital	code	pop
4426884	Forest	32.3646	-89.4742	0	PPLA2	5
4436694	Morton	32.3538	-89.6545	0	PPL	3
4435722	Mendenhall	31.9618	-89.8701	0	PPLA2	2
4442797	Raleigh	32.0335	-89.5223	0	PPLA2	1
4440660	Pelahatchie	32.3129	-89.7984	0	PPL	1
4429861	Hillsboro	32.4593	-89.5115	0	PPL	1
