id	name	lat	lon	capital	code	pop
3527065	Hopelchén	19.7467	-89.8444	0	PPLA2	7
3526746	Iturbide	19.5790	-89.6022	0	PPL	3
8858630	Los Laureles	19.4878	-89.9944	0	PPL	2
3529666	Dzibalchén	19.4585	-89.7311	0	PPL	2
3530700	Chunchintok	19.3615	-89.5822	0	PPL	1
