id	name	lat	lon	capital	code	pop
8406673	Lanqiao	28.1882	108.9934	0	PPLA4	12
1805531	Jinhe	27.7169	109.6047	0	PPL	3
1817794	Bahuang	27.7181	109.0189	0	PPL	1
1815377	Chatian	27.8022	109.3736	0	PPL	1
1794412	Shuidatian	27.8522	109.6047	0	PPL	1
1787304	Yangtou	27.6894	109.4139	0	PPL	1
