id	name	lat	lon	capital	code	pop
3980125	Villa Unión	23.1899	-106.2195	0	PPL	13
8858221	Fraccionamiento los Ángeles	23.1883	-106.3300	0	PPL	6
4006931	El Walamo	23.1401	-106.2450	0	PPL	3
4010541	El Castillo	23.1954	-106.3391	0	PPL	2
4017376	Barrón	23.1232	-106.2765	0	PPL	1
