id	name	lat	lon	capital	code	pop
1185241	Dhaka	23.7104	90.4074	1	PPLC	10356
1205733	Chattogram	22.3384	91.8317	0	PPLA	3920
1185186	Comilla	23.4619	91.1850	0	PPL	1030
1271476	Guwahati	26.1844	91.7458	0	PPL	899
1185098	Tungi	23.8915	90.4023	0	PPL	337
1185117	Narsingdi	23.9230	90.7177	0	PPL	281
1279186	Aizawl	23.7289	92.7179	0	PPLA	265
1185099	Sylhet	24.8990	91.8720	0	PPLA	237
1185162	Mymensingh	24.7564	90.4065	0	PPLA	225
1269771	Imphāl	24.8081	93.9442	0	PPLA	223
1185155	Nārāyanganj	23.6135	90.5030	0	PPL	223
1279290	Agartala	23.8361	91.2794	0	PPLA	203
1336137	Barishal	22.7050	90.3701	0	PPLA	202
9827976	Paltan	23.7362	90.4143	0	PPL	184
1308522	Monywa	22.1086	95.1358	0	PPL	182
1256287	Silchar	24.8273	92.7979	0	PPL	152
1272552	Dimāpur	25.9117	93.7217	0	PPL	135
1256523	Shillong	25.5689	91.8831	0	PPLA	132
1187530	Sonārgaon	23.6500	90.6167	0	PPL	130
1337248	Sherpur	25.0188	90.0175	0	PPL	107
1185263	Bhairab Bāzār	24.0524	90.9764	0	PPL	105
1336136	Bhola	22.6876	90.6440	0	PPL	99
7701354	Azimpur	23.7298	90.3854	0	PPL	96
1266366	Kohīma	25.6747	94.1110	0	PPLA	92
1337249	Kishorganj	24.4394	90.7829	0	PPL	90
6414184	Bibir Hat	22.6835	91.7906	0	PPLA3	89
1185209	Habiganj	24.3804	91.4130	0	PPL	88
1337245	Madaripur	23.1710	90.2094	0	PPL	84
1185224	Feni	23.0144	91.3966	0	PPL	84
1185183	Lākshām	23.2402	91.1214	0	PPL	82
1185116	Netrakona	24.8835	90.7290	0	PPLA2	79
1268820	Jorhāt	26.7575	94.2031	0	PPL	69
1191368	Pālang	23.2182	90.3508	0	PPL	67
1275321	Bongaigaon	26.4770	90.5581	0	PPL	64
1185236	Rāipur	23.0391	90.7681	0	PPL	64
1254046	Tura	25.5142	90.2024	0	PPL	63
1256388	Sibsāgar	26.9843	94.6378	0	PPL	62
1196292	Lakshmīpur	22.9443	90.8300	0	PPL	61
1254710	Tezpur	26.6333	92.8000	0	PPL	58
1272525	Diphu	25.8434	93.4312	0	PPL	57
1185166	Maulavi Bāzār	24.4889	91.7708	0	PPL	57
1267758	Karīmganj	24.8692	92.3554	0	PPL	55
1185127	Rāmganj	23.1006	90.8499	0	PPL	55
1252840	Wokha	26.0972	94.2582	0	PPL	54
1264688	Lunglei	22.8925	92.7422	0	PPL	52
1336133	Sātkania	22.0764	92.0495	0	PPL	52
1185120	Sandwīp	22.5141	91.4549	0	PPL	52
1185148	Patiya	22.2954	91.9790	0	PPL	51
1271151	Goālpāra	26.1767	90.6263	0	PPL	50
1185252	Khagrachhari	23.1079	91.9701	0	PPL	50
1276867	Barpeta	26.3229	91.0063	0	PPL	48
1205481	Uttar Char Fasson	22.2265	90.7127	0	PPL	48
1273909	Churāchāndpur	24.3335	93.6700	0	PPL	47
1210565	Burhānuddin	22.4952	90.7239	0	PPL	45
1185100	Dohār	23.5931	90.1425	0	PPL	45
1310120	Mawlaik	23.6425	94.4048	0	PPL	44
1254570	Thoubāl	24.6388	93.9964	0	PPL	44
1201753	Hājīganj	23.2519	90.8551	0	PPL	44
1185251	Lālmohan	22.3377	90.7371	0	PPL	42
1185165	Mirzāpur	24.1029	90.0984	0	PPL	41
1189056	Sakhipur	24.3199	90.1694	0	PPL	40
1185210	Gaurnadi	22.9737	90.2238	0	PPL	40
1270543	Hāflong	25.1648	93.0174	0	PPL	39
1185254	Chhātak	25.0385	91.6696	0	PPLA3	39
1185249	Chhāgalnāiya	23.0248	91.5109	0	PPL	39
1185171	Mehendiganj	22.8226	90.5286	0	PPL	39
1185156	Nālchiti	22.6370	90.2720	0	PPL	38
1275641	Bilāsipāra	26.2328	90.2341	0	PPL	37
1185274	Baniachang	24.5186	91.3579	0	PPL	37
1269993	Hojāi	26.0028	92.8560	0	PPLA2	36
7302849	Barpeta Road	26.5028	90.9694	0	PPL	35
1271050	Golāghāt	26.5117	93.9595	0	PPL	34
1262843	Mokokchūng	26.3248	94.5183	0	PPL	34
1207047	Char Bhadrāsan	23.3092	90.2270	0	PPL	34
1185276	Bājitpur	24.2162	90.9500	0	PPL	34
1185218	Gafargaon	24.4320	90.5585	0	PPL	34
1254133	Tuensang	26.2670	94.8242	0	PPL	33
1272852	Dharmanagar	24.3667	92.1667	0	PPLA2	32
1185270	Bāndarban	22.1953	92.2195	0	PPL	32
1270530	Hailākāndi	24.6839	92.5610	0	PPL	31
1266330	Kokrajhar	26.4011	90.2729	0	PPL	31
1193823	Nabīnagar	23.8879	90.9679	0	PPL	31
1268567	Kakching	24.4982	93.9813	0	PPLA2	30
1477498	Bhāndāria	22.4890	90.0627	0	PPL	30
1252653	Zunheboto	25.9667	94.5167	0	PPLA2	29
1258492	Rangia	26.4493	91.6136	0	PPL	26
7302859	Lumding Railway Colony	25.7490	93.1700	0	PPL	25
1266258	Kolasib	24.2239	92.6787	0	PPL	25
1261205	Nongstoin	25.5170	91.2648	0	PPL	25
1189638	Raojān	22.5351	91.9192	0	PPL	25
1263787	Mangaldai	26.4421	92.0305	0	PPL	24
1462681	Manikchari	22.8396	91.8413	0	PPL	24
1185164	Muktāgācha	24.7648	90.2570	0	PPL	24
1263522	Mariāni	26.6573	94.3153	0	PPL	23
1253987	Udaipur	23.5333	91.4833	0	PPLA2	23
1268622	Kailāshahar	24.3320	92.0039	0	PPLA2	22
1263255	Mayāng Imphāl	24.6100	93.8887	0	PPL	22
1257771	Saiha	22.4918	92.9814	0	PPL	22
1252608	Tsirang	27.0219	90.1229	0	PPLA	22
1272790	Dhekiajuli	26.7037	92.4781	0	PPL	21
1325443	Hakha	22.6445	93.6108	0	PPLA	20
7302854	Morigaon	26.2491	92.3476	0	PPLA2	20
1272768	Dhing	26.4679	92.4734	0	PPL	20
1266649	Khowai	24.0796	91.5997	0	PPLA2	20
1256812	Serchhīp	23.2931	92.8468	0	PPL	20
1274618	Chāpar	26.2727	90.4456	0	PPL	19
1255788	Sonāri	27.0246	95.0163	0	PPL	19
1266862	Khārupatia	26.5184	92.1472	0	PPL	18
1262824	Mon	26.7358	95.0584	0	PPL	18
1258501	Rangāpāra	26.8377	92.6688	0	PPL	18
1276938	Barjala	23.6182	91.3560	0	PPL	17
1269927	Howli	26.4224	90.9800	0	PPL	17
1262863	Moirāng	24.4975	93.7779	0	PPL	17
1261186	North Guwāhāti	26.1975	91.7202	0	PPL	17
1276502	Belonia	23.2518	91.4541	0	PPLA2	16
1275364	Bokajān	26.0213	93.7794	0	PPL	16
1279407	Abhayāpuri	26.3225	90.6853	0	PPL	15
1270522	Hājo	26.2452	91.5252	0	PPL	15
1259784	Phek	25.6667	94.5000	0	PPL	15
1253977	Udalguri	26.7537	92.1021	0	PPL	15
