id	name	lat	lon	capital	code	pop
764039	Nidzica	53.3605	20.4275	0	PPL	14
762588	Pasym	53.6507	20.7919	0	PPLA3	2
755907	Wielbark	53.3986	20.9463	0	PPL	2
772644	DÅºwierzuty	53.7049	20.9604	0	PPL	1
770148	Jedwabno	53.5299	20.7266	0	PPL	1
760909	Purda	53.7084	20.7068	0	PPL	1
758242	Stawiguda	53.6572	20.4004	0	PPL	1
