id	name	lat	lon	capital	code	pop
264416	Astakós	38.5356	21.0814	0	PPL	2
256054	Pálairos	38.7830	20.8818	0	PPL	2
264618	Archontochóri	38.7005	21.0390	0	PPL	1
261708	Itháki	38.3642	20.7185	0	PPL	1
261150	Kandíla	38.7056	20.9475	0	PPL	1
