id	name	lat	lon	capital	code	pop
2177233	Bairnsdale	-37.8229	147.6104	0	PPL	15
2150615	Sale	-38.1110	147.0680	0	PPL	13
2159131	Maffra	-37.9713	146.9837	0	PPL	5
2148120	Stratford	-37.9634	147.0826	0	PPL	2
11704369	East Bairnsdale	-37.8343	147.6555	0	PPLX	1
2174114	Briagolong	-37.8436	147.0727	0	PPL	1
2159684	Longford	-38.1624	147.0859	0	PPL	1
2159389	Lucknow	-37.8167	147.6500	0	PPL	1
2142825	Wurruk	-38.1167	147.0333	0	PPL	1
2142724	Wy Yung	-37.8000	147.5833	0	PPL	1
