id	name	lat	lon	capital	code	pop
8348820	Broadwater	-33.6630	115.2842	0	PPLX	4
2072430	Dunsborough	-33.6148	115.1044	0	PPL	4
2059507	Vasse	-33.6934	115.2678	0	PPL	2
8347838	Abbey	-33.6636	115.2563	0	PPLX	1
2062766	Quindalup	-33.6356	115.1490	0	PPL	1
2057614	Yallingup	-33.6459	115.0351	0	PPL	1
