id	name	lat	lon	capital	code	pop
8349203	Clinton	-23.8752	151.2179	0	PPLX	5
11704263	West Gladstone	-23.8612	151.2453	0	PPLX	4
8348903	New Auckland	-23.8836	151.2356	0	PPLX	4
11704273	South Gladstone	-23.8622	151.2680	0	PPLX	3
8348500	Kin Kora	-23.8771	151.2472	0	PPLX	2
11704328	Barney Point	-23.8479	151.2658	0	PPLX	1
11704262	Gladstone Central	-23.8428	151.2489	0	PPL	1
8348971	Sun Valley	-23.8752	151.2575	0	PPLX	1
