id	name	lat	lon	capital	code	pop
2171845	Cessnock	-32.8321	151.3562	0	PPL	15
2152022	Raymond Terrace	-32.7595	151.7505	0	PPLX	12
2144890	Wallsend	-32.9013	151.6643	0	PPLX	12
2171766	Charlestown	-32.9683	151.6932	0	PPLX	11
2167869	East Maitland	-32.7500	151.5833	0	PPLX	11
2150791	Rutherford	-32.7167	151.5333	0	PPLX	11
8348074	Merewether	-32.9480	151.7432	0	PPLX	10
2205629	New Lambton	-32.9284	151.7085	0	PPL	10
10103855	Mayfield	-32.8979	151.7361	0	PPLX	9
2158220	Medowie	-32.7415	151.8676	0	PPLX	9
8348833	Warners Bay	-32.9725	151.6527	0	PPLX	7
8348462	Cameron Park	-32.9070	151.6053	0	PPLX	7
8347845	Maryland	-32.8789	151.6614	0	PPLX	7
2176263	Belmont	-33.0274	151.6601	0	PPLX	7
2146777	Thornton	-32.7833	151.6333	0	PPLX	7
10103878	Belmont North	-33.0208	151.6685	0	PPLX	6
8348540	Edgeworth	-32.9251	151.6161	0	PPLX	6
2160922	Kurri Kurri	-32.8193	151.4791	0	PPLX	6
10103951	Toronto	-33.0136	151.5937	0	PPLX	5
10103846	Elermore Vale	-32.9162	151.6766	0	PPLX	5
8349225	Valentine	-33.0150	151.6429	0	PPLX	5
8348859	Fletcher	-32.8723	151.6401	0	PPLX	5
8348418	Adamstown	-32.9382	151.7254	0	PPLX	5
8347693	Adamstown Heights	-32.9491	151.7101	0	PPLX	5
8029813	Eleebana	-32.9896	151.6364	0	PPLX	5
2178354	Aberglasslyn	-32.7000	151.5333	0	PPLX	5
2170456	Cooranbong	-33.0762	151.4541	0	PPLX	5
10104094	Ashtonfield	-32.7733	151.6058	0	PPLX	4
10103871	Waratah	-32.9067	151.7265	0	PPLX	4
10103847	Hamilton	-32.9221	151.7471	0	PPLX	4
8347843	Metford	-32.7650	151.6094	0	PPLX	4
2205628	Lambton	-32.9167	151.7000	0	PPLX	4
2148333	Stockton	-32.9091	151.7836	0	PPLX	4
2147737	Swansea	-33.0876	151.6375	0	PPLX	4
11523832	Newcastle city centre	-32.9288	151.7774	0	PPLX	3
10103950	Windale	-32.9928	151.6817	0	PPLX	3
10103930	Glendale	-32.9319	151.6410	0	PPLX	3
10103929	Gateshead	-32.9821	151.6919	0	PPLX	3
10103869	North Lambton	-32.9061	151.7057	0	PPLX	3
10103866	New Lambton Heights	-32.9247	151.6936	0	PPLX	3
10103845	Cooks Hill	-32.9324	151.7711	0	PPLX	3
8556208	Jesmond	-32.9027	151.6907	0	PPLX	3
8349116	Mount Hutton	-32.9833	151.6701	0	PPLX	3
8348759	Speers Point	-32.9638	151.6262	0	PPLX	3
8348482	Caves Beach	-33.1064	151.6440	0	PPLX	3
8348067	Macquarie Hills	-32.9511	151.6446	0	PPLX	3
8347941	Shortland	-32.8788	151.6910	0	PPLX	3
8310712	Gwandalan	-33.1354	151.5829	0	PPLX	3
8310708	Gillieston Heights	-32.7616	151.5286	0	PPLX	3
8310683	Bonnells Bay	-33.1097	151.5323	0	PPLX	3
2176096	Beresfield	-32.8000	151.6500	0	PPL	3
2161029	Kotara	-32.9428	151.6959	0	PPLX	3
2156890	Morisset	-33.1080	151.4871	0	PPLX	3
2151924	Redhead	-33.0118	151.7114	0	PPLX	3
11523840	Maitland city centre	-32.7326	151.5533	0	PPLX	2
10104095	Bolwarra Heights	-32.7010	151.5854	0	PPLX	2
10103948	Tingira Heights	-32.9973	151.6702	0	PPLX	2
10103936	Jewells	-33.0139	151.6831	0	PPLX	2
10103882	Cardiff South	-32.9547	151.6645	0	PPLX	2
10103880	Bolton Point	-33.0018	151.6101	0	PPLX	2
10103870	Rankin Park	-32.9252	151.6802	0	PPLX	2
8348528	Dudley	-32.9937	151.7220	0	PPLX	2
8348426	Birmingham Gardens	-32.8937	151.6901	0	PPLX	2
8348013	Woodberry	-32.7931	151.6769	0	PPLX	2
8347991	Fern Bay	-32.8643	151.8131	0	PPLX	2
8347908	Waratah West	-32.9000	151.7117	0	PPLX	2
8347780	Blackalls Park	-32.9989	151.5802	0	PPLX	2
2178366	Aberdare	-32.8411	151.3817	0	PPLX	2
2178351	Abermain	-32.8074	151.4275	0	PPLX	2
2176329	Bellbird	-32.8599	151.3187	0	PPLX	2
2172349	Cardiff	-32.9420	151.6544	0	PPLX	2
2164451	Greta	-32.6778	151.3892	0	PPLX	2
2163669	Heddon Greta	-32.8020	151.5133	0	PPL	2
2162025	Kahibah	-32.9618	151.7125	0	PPLX	2
2147180	Telarah	-32.7288	151.5345	0	PPLX	2
2147134	Tenambit	-32.7397	151.6129	0	PPLX	2
2144756	Wangi Wangi	-33.0718	151.5984	0	PPLX	2
2143937	West Wallsend	-32.9000	151.5833	0	PPLX	2
2143848	Whitebridge	-32.9744	151.7161	0	PPL	2
11704402	Kotara South	-32.9526	151.6908	0	PPLX	1
11704327	East Branxton	-32.6537	151.3656	0	PPLX	1
11704299	The Hill	-32.9309	151.7783	0	PPLX	1
10103926	Garden Suburb	-32.9437	151.6808	0	PPLX	1
10103923	Floraville	-33.0112	151.6648	0	PPLX	1
10103922	Fennell Bay	-32.9922	151.6001	0	PPLX	1
10103885	Coal Point	-33.0423	151.6116	0	PPLX	1
10103881	Cardiff Heights	-32.9363	151.6723	0	PPLX	1
10103879	Belmont South	-33.0493	151.6569	0	PPLX	1
10103867	Newcastle East	-32.9277	151.7884	0	PPLX	1
10103865	Merewether Heights	-32.9473	151.7356	0	PPLX	1
10103857	Mayfield West	-32.8920	151.7271	0	PPLX	1
10103850	The Junction	-32.9382	151.7591	0	PPLX	1
10103839	Carrington	-32.9150	151.7644	0	PPLX	1
10103838	Broadmeadow	-32.9237	151.7285	0	PPLX	1
10103835	Bar Beach	-32.9413	151.7654	0	PPLX	1
10103762	Arcadia vale	-33.0605	151.5841	0	PPLX	1
8614882	Blacksmiths	-33.0717	151.6553	0	PPLX	1
8468625	Warabrook	-32.8888	151.7149	0	PPLX	1
8349346	Woodrising	-32.9860	151.6066	0	PPLX	1
8348716	Mayfield East	-32.9003	151.7497	0	PPLX	1
8348646	Callaghan	-32.8920	151.7053	0	PPLX	1
8348617	Kilaben Bay	-33.0239	151.5920	0	PPLX	1
8348598	Islington	-32.9139	151.7474	0	PPLX	1
8348463	Buttaba	-33.0533	151.5787	0	PPLX	1
8348455	Booragul	-32.9749	151.6098	0	PPLX	1
8348454	Georgetown	-32.9081	151.7312	0	PPLX	1
8348302	Lakelands	-32.9618	151.6497	0	PPLX	1
8348127	Wickham	-32.9192	151.7569	0	PPLX	1
8348083	Maryville	-32.9112	151.7554	0	PPLX	1
8347840	Marks Point	-33.0564	151.6496	0	PPLX	1
8347729	Tighes Hill	-32.9073	151.7509	0	PPLX	1
8347695	Argenton	-32.9350	151.6306	0	PPLX	1
8310700	Ellalong	-32.9151	151.3116	0	PPLX	1
2205622	Morpeth	-32.7333	151.6333	0	PPL	1
2176793	Barnsley	-32.9333	151.5833	0	PPLX	1
2174190	Branxton	-32.6555	151.3511	0	PPLX	1
2171465	Clarence Town	-32.5840	151.7776	0	PPL	1
2168546	Dora Creek	-33.0814	151.4968	0	PPLX	1
2163275	Holmesville	-32.9167	151.5833	0	PPL	1
2160546	Largs	-32.7000	151.6000	0	PPLX	1
2159550	Lorn	-32.7270	151.5725	0	PPLX	1
2152799	Pokolbin	-32.8000	151.2833	0	PPLX	1
2152071	Rathmines	-33.0377	151.5844	0	PPLX	1
2152033	Raworth	-32.7333	151.6167	0	PPL	1
2147312	Tarro	-32.8000	151.6667	0	PPL	1
2147072	Teralba	-32.9667	151.6000	0	PPL	1
2144957	Wallalong	-32.6956	151.6496	0	PPLX	1
2143560	Williamtown	-32.8064	151.8436	0	PPLX	1
