id	name	lat	lon	capital	code	pop
1796236	Shanghai	31.2222	121.4581	0	PPLA	22315
1816670	Beijing	39.9075	116.3972	1	PPLC	18960
1795565	Shenzhen	22.5455	114.0683	0	PPLA2	17494
1809858	Guangzhou	23.1167	113.2500	0	PPLA	16096
1815286	Chengdu	30.6667	104.0667	0	PPLA	13568
1792947	Tianjin	39.1422	117.1767	0	PPLA	11090
1791247	Wuhan	30.5833	114.2667	0	PPLA	10392
1185241	Dhaka	23.7104	90.4074	1	PPLC	10356
1835848	Seoul	37.5660	126.9784	1	PPLC	10349
1812545	Dongguan	23.0180	113.7487	0	PPLA2	9644
1790630	Xi’an	34.2583	108.9286	0	PPLA	9600
1799962	Nanjing	32.0617	118.7778	0	PPLA	9314
1808926	Hangzhou	30.2936	120.1614	0	PPLA	9236
1811103	Foshan	23.0268	113.1315	0	PPLA2	9042
1566083	Ho Chi Minh City	10.8230	106.6296	0	PPLA	8993
1850147	Tokyo	35.6895	139.6917	1	PPLC	8336
1581130	Hanoi	21.0245	105.8412	1	PPLC	8053
1668341	Taipei	25.0478	121.5319	1	PPLC	7871
1819729	Hong Kong	22.2783	114.1747	1	PPLC	7482
1814906	Chongqing	29.5603	106.5577	0	PPLA	7457
1797929	Qingdao	36.0649	120.3804	0	PPLA2	7172
2034937	Shenyang	41.7922	123.4328	0	PPLA	7050
1886760	Suzhou	31.3041	120.5954	0	PPLA2	6715
1880252	Singapore	1.2897	103.8501	1	PPLC	5638
2037013	Harbin	45.7500	126.6500	0	PPLA	5242
1609350	Bangkok	13.7540	100.5014	1	PPLC	5104
1808722	Hefei	31.8639	117.2808	0	PPLA	5050
1814087	Dalian	38.9122	121.6022	0	PPL	4913
2038180	Changchun	43.8800	125.3228	0	PPLA	4714
1790645	Xiamen	24.4798	118.0819	0	PPLA2	4617
1298824	Yangon	16.8053	96.1561	0	PPLA	4477
1790923	Wuxi	31.5689	120.2886	0	PPLA2	4396
1805753	Jinan	36.6683	116.9972	0	PPLA	4335
1793511	Taiyuan	37.8694	112.5603	0	PPLA	4303
1784658	Zhengzhou	34.7578	113.6486	0	PPLA	4253
1795270	Shijiazhuang	38.0414	114.4786	0	PPLA	3938
1205733	Chattogram	22.3384	91.8317	0	PPLA	3920
1804651	Kunming	25.0389	102.7183	0	PPLA	3855
6986104	Zhongshan	22.5231	113.3791	0	PPLA2	3841
1799869	Nanning	22.8167	108.3167	0	PPLA	3839
1795940	Shantou	23.3549	116.6788	0	PPLA2	3838
1848354	Yokohama	35.4333	139.6500	0	PPLA	3761
1810821	Fuzhou	26.0614	119.3061	0	PPLA	3740
1799397	Ningbo	29.8782	121.5494	0	PPLA2	3731
1838524	Busan	35.1017	129.0300	0	PPLA	3678
1798425	Puyang	29.4568	119.8887	0	PPLA3	3590
1794903	Shiyan	32.6475	110.7781	0	PPLA2	3460
1793346	Tangshan	39.6333	118.1833	0	PPLA2	3372
1815456	Changzhou	31.7736	119.9540	0	PPLA2	3290
1871859	Pyongyang	39.0339	125.7543	1	PPLC	3222
1785286	Zibo	36.7906	118.0633	0	PPL	3129
1815577	Changsha	28.1987	112.9709	0	PPLA	3093
1809461	Guiyang	26.5833	106.7167	0	PPLA	3037
1804430	Lanzhou	36.0570	103.8399	0	PPLA	3000
1843564	Incheon	37.4565	126.7052	0	PPLA	2954
1806776	Huizhou	23.1115	114.4152	0	PPLA2	2900
1809078	Haikou	20.0342	110.3465	0	PPLA	2873
1692192	Quezon City	14.6488	121.0509	0	PPLA2	2761
1853909	Osaka	34.6937	135.5022	0	PPLA	2753
1803318	Linyi	35.0631	118.3428	0	PPLA2	2743
1816971	Baoding	38.8511	115.4903	0	PPL	2739
1791388	Wenzhou	27.9994	120.6668	0	PPLA3	2650
1785725	Yunfu	22.9279	112.0381	0	PPLA2	2612
1835329	Daegu	35.8703	128.5911	0	PPLA	2566
1797873	Huai'an	33.5886	119.0192	0	PPL	2494
1214520	Medan	3.5833	98.6667	0	PPLA	2435
1800163	Nanchang	28.6840	115.8531	0	PPLA	2357
2036892	Hohhot	40.8106	111.6522	0	PPLA	2350
1819609	Kowloon	22.3167	114.1833	0	PPLA	2303
1795855	Shaoxing	30.0024	120.5786	0	PPLA3	2300
1799722	Nantong	32.0303	120.8747	0	PPLA2	2273
1787093	Yantai	37.4765	121.4408	0	PPL	2227
1790437	Zhuhai	22.2769	113.5678	0	PPLA2	2207
1856057	Nagoya	35.1815	136.9064	0	PPLA	2191
2038432	Baotou	40.6516	109.8439	0	PPL	2150
1785623	Kunshan	31.3776	120.9543	0	PPLA3	2092
1791681	Weifang	36.7100	119.1019	0	PPL	2044
1783621	Zunyi	27.6867	106.9072	0	PPLA2	2037
10859300	Lianyungang	34.5984	119.2156	0	PPLA2	2001
1810638	Ganzhou	25.8466	114.9326	0	PPLA2	1977
2128295	Sapporo	43.0667	141.3500	0	PPLA	1973
8347664	Ordos	39.6086	109.7816	0	PPL	1940
1797121	Jieyang	23.5418	116.3658	0	PPLA2	1899
2036502	Jilin	43.8508	126.5603	0	PPLA2	1895
1800146	Nanchong	30.7951	106.0847	0	PPLA2	1858
2037799	Datong	40.0936	113.2914	0	PPL	1850
1799629	Nanyang	32.9947	112.5328	0	PPLA2	1811
1806299	Jiangmen	22.5833	113.0833	0	PPLA2	1795
1815251	Jiangyin	31.9110	120.2630	0	PPLA3	1779
1715348	Davao	7.0731	125.6128	0	PPLA	1776
1810845	Fuyang	32.9000	115.8167	0	PPLA2	1768
11838258	Bayan Nur	40.7414	107.3860	0	PPL	1760
1815395	Chaozhou	23.6540	116.6226	0	PPLA2	1750
1797945	Qingyuan	23.7000	113.0333	0	PPLA2	1738
1793724	Tai’an	36.1853	117.1200	0	PPLA2	1735
7283386	Changshu	31.6461	120.7422	0	PPLA3	1677
1788852	Xining	36.6255	101.7574	0	PPLA	1677
1807681	Huainan	32.6264	116.9969	0	PPL	1666
1793743	Suzhou	33.6361	116.9789	0	PPLA2	1647
1802206	Lu’an	31.7356	116.5169	0	PPLA2	1644
1787746	Yancheng	33.3575	120.1573	0	PPLA2	1615
1793505	Taizhou	32.4907	119.9081	0	PPLA3	1607
2037860	Daqing	46.5833	125.0000	0	PPLA2	1604
1863967	Fukuoka	33.6000	130.4167	0	PPLA	1603
1701668	Manila	14.6042	120.9822	1	PPLC	1600
1791236	Wuhu	31.3526	118.4295	0	PPLA2	1598
1813325	Dazhou	31.2106	107.4631	0	PPLA2	1589
1787227	Yangzhou	32.3972	119.4358	0	PPL	1584
1821306	Phnom Penh	11.5625	104.9160	1	PPLC	1573
1809498	Guilin	25.2802	110.2964	0	PPLA2	1572
1784853	Zhaoqing	23.0489	112.4609	0	PPLA2	1553
1800627	Mianyang	31.4678	104.6817	0	PPLA3	1550
1798449	Putian	25.4394	119.0103	0	PPLA2	1539
1783934	Shangqiu	34.4500	115.6500	0	PPL	1536
1859642	Kawasaki	35.5206	139.7172	0	PPLA2	1531
1859171	Kobe	34.6913	135.1830	0	PPLA	1522
1673820	Kaohsiung	22.6163	120.3133	0	PPLA	1519
1720151	Caloocan City	14.6495	120.9679	0	PPLA2	1500
1841811	Gwangju	35.1547	126.9156	0	PPLA	1490
1786657	Yinchuan	38.4681	106.2731	0	PPLA	1487
8400694	Taizhou	28.6627	121.4331	0	PPLA2	1485
1814870	Yiwu	29.3151	120.0768	0	PPLA3	1481
1835235	Daejeon	36.3491	127.3849	0	PPLA	1469
1797353	Quanzhou	24.9139	118.5858	0	PPLA2	1469
1857910	Kyoto	35.0211	135.7538	0	PPLA	1463
1805528	Jinhua	29.1068	119.6442	0	PPLA2	1463
1806602	Cixi	30.1764	121.2457	0	PPLA3	1457
1791121	Changde	29.0321	111.6984	0	PPLA3	1457
1735161	Kuala Lumpur	3.1412	101.6865	1	PPLC	1453
6611854	Nay Pyi Taw	19.7450	96.1297	1	PPLC	925
2028462	Ulan Bator	47.9077	106.8832	1	PPLC	844
1821274	Macau	22.2006	113.5461	1	PPLC	649
