id	name	lat	lon	capital	code	pop
2599415	Björklinge	60.0300	17.5520	0	PPL	3
2723655	Bälinge	59.9500	17.5333	0	PPL	2
2691326	Morgongåva	59.9340	16.9635	0	PPL	1
2685724	Östervåla	60.1833	17.1833	0	PPL	1
2669342	Tärnsjö	60.1500	16.9333	0	PPL	1
