id	name	lat	lon	capital	code	pop
3092080	Miastko	54.0028	16.9826	0	PPLA3	10
3095874	Kocza≈Ça	53.9045	17.0653	0	PPL	2
3088017	Przechlewo	53.7985	17.2521	0	PPL	2
3086469	Rzeczenica	53.7579	17.1075	0	PPL	1
3083039	Tuchomie	54.1152	17.3363	0	PPLA3	1
3093285	Lipnica	53.9962	17.4070	0	PPLA3	0
3084334	Studzienice	54.0926	17.5758	0	PPLA3	0
