id	name	lat	lon	capital	code	pop
3196410	Livno	43.8269	17.0075	0	PPLA2	11
3200930	Tomislavgrad	43.7185	17.2251	0	PPLA2	7
3193008	Podhum	43.7229	16.9989	0	PPL	5
3293429	Pajić Polje	43.9758	17.5275	0	PPL	4
3204168	Bila	43.7826	16.9268	0	PPLL	4
3186961	Zabrišće	43.7922	16.9422	0	PPL	4
3191426	Rumboci	43.8315	17.5027	0	PPL	3
3187799	Vidoši	43.7714	17.0283	0	PPL	3
