id	name	lat	lon	capital	code	pop
5136353	Saugerties	42.0776	-73.9529	0	PPL	3
5111833	Catskill	42.2173	-73.8646	0	PPLA2	3
7258945	Saugerties South	42.0614	-73.9507	0	PPL	2
5145072	Woodstock	42.0409	-74.1182	0	PPL	2
5118606	Glasco	42.0437	-73.9474	0	PPL	2
5115534	Durham	42.3995	-74.1724	0	PPL	2
5141073	Tivoli	42.0584	-73.9093	0	PPL	1
5130402	Palenville	42.1745	-74.0201	0	PPL	1
5122584	Jefferson Heights	42.2340	-73.8824	0	PPL	1
5111056	Cairo	42.2990	-73.9985	0	PPL	1
