id	name	lat	lon	capital	code	pop
2654332	Buncrana	55.1333	-7.4500	0	PPL	6
2651732	Culmore	55.0500	-7.2667	0	PPL	3
2650184	Eglinton	55.0167	-7.1833	0	PPL	3
2965761	Carndonagh	55.2500	-7.2667	0	PPL	2
2962450	Moville	55.1915	-7.0387	0	PPL	1
2962389	Muff	55.0667	-7.2667	0	PPL	1
2962235	Newtown Cunningham	54.9964	-7.5192	0	PPL	1
2961897	Ramelton	55.0367	-7.6492	0	PPL	1
