id	name	lat	lon	capital	code	pop
2965535	Cavan	53.9908	-7.3606	0	PPLA2	6
2966550	Ballyjamesduff	53.8653	-7.2028	0	PPL	2
2961006	Virginia	53.8339	-7.0756	0	PPL	2
2966638	Ballyconnell	54.1167	-7.5833	0	PPL	1
2966201	Belturbet	54.1000	-7.4500	0	PPL	1
2965158	Cootehill	54.0725	-7.0819	0	PPL	1
2962179	Oldcastle	53.7665	-7.1628	0	PPL	1
