id	name	lat	lon	capital	code	pop
2962026	Portlaoise	53.0344	-7.2998	0	PPLA2	13
2961086	Tullamore	53.2739	-7.4889	0	PPLA2	11
2962029	Portarlington	53.1622	-7.1911	0	PPL	7
2962556	Monasterevin	53.1406	-7.0664	0	PPL	4
2962476	Mountmellick	53.1136	-7.3200	0	PPL	3
7838899	Ballylinan	52.9450	-7.0407	0	PPL	1
2967092	Abbeyleix	52.9133	-7.3446	0	PPL	1
2962465	Mountrath	52.9989	-7.4728	0	PPL	1
2962054	Daingean	53.2961	-7.2894	0	PPL	1
2961349	Stradbally	53.0156	-7.1528	0	PPL	1
