id	name	lat	lon	capital	code	pop
2965841	Callan	52.5450	-7.3911	0	PPL	2
2961224	Thomastown	52.5267	-7.1372	0	PPL	2
2966420	Ballyragget	52.7889	-7.3303	0	PPL	1
2965643	Castlecomer	52.8061	-7.2106	0	PPL	1
2961920	Rathdowney	52.8547	-7.5803	0	PPL	1
2961025	Urlingford	52.7206	-7.5825	0	PPL	1
