id	name	lat	lon	capital	code	pop
487372	Storozhevaya	43.8789	41.4514	0	PPL	7
505539	Pregradnaya	43.9539	41.1891	0	PPL	6
864612	Mednogorskiy	43.9178	41.1825	0	PPL	4
538879	Kurdzhinovo	43.9884	40.9552	0	PPL	4
520806	Nizhniy Arkhyz	43.6782	41.4598	0	PPL	2
