id	name	lat	lon	capital	code	pop
5379759	Oroville	39.5139	-121.5578	0	PPLA2	16
5369690	Magalia	39.8121	-121.5783	0	PPL	11
7262050	Oroville East	39.5113	-121.4752	0	PPL	8
5402159	Thermalito	39.5113	-121.5869	0	PPL	6
5397700	South Oroville	39.4965	-121.5522	0	PPL	5
5380571	Palermo	39.4354	-121.5380	0	PPL	5
7261058	Challenge-Brownsville	39.4645	-121.2634	0	PPL	1
5327760	Berry Creek	39.6452	-121.4033	0	PPL	1
