id	name	lat	lon	capital	code	pop
5391291	Salida	37.7058	-121.0849	0	PPL	13
5376870	Newman	37.3138	-121.0208	0	PPL	10
7262504	West Modesto	37.6175	-121.0391	0	PPL	5
7260952	Bret Harte	37.6021	-121.0052	0	PPLX	5
5354747	Gustine	37.2577	-120.9988	0	PPL	5
5332318	Bystrom	37.6208	-120.9858	0	PPL	4
5394774	Shackelford	37.6138	-120.9927	0	PPLX	3
5387865	Riverdale Park	37.6094	-121.0519	0	PPL	1
