id	name	lat	lon	capital	code	pop
1275882	Bhogpur	31.5544	75.6427	0	PPL	18
1462733	Adampur	31.4322	75.7148	0	PPL	17
1276616	Begowāl	31.6115	75.5213	0	PPL	10
1275859	Bhulath Gharbi	31.5428	75.5075	0	PPL	10
1272771	Dhilwan	31.5143	75.3457	0	PPL	8
1270357	Hariāna	31.6351	75.8389	0	PPL	8
1279050	Alāwalpur	31.4316	75.6561	0	PPL	7
1271575	Garhdiwāla	31.7415	75.7557	0	PPL	6
1256676	Shām Churāsi	31.5003	75.7492	0	PPL	4
