id	name	lat	lon	capital	code	pop
3172394	Naples	40.8522	14.2681	0	PPLA	909
2523920	Palermo	38.1166	13.3636	0	PPLA	648
2525068	Catania	37.4922	15.0704	0	PPLA2	311
2524170	Messina	38.1939	15.5526	0	PPLA2	219
2523630	Reggio Calabria	38.1105	15.6613	0	PPLA2	182
3168673	Salerno	40.6754	14.7933	0	PPLA2	125
2523083	Siracusa	37.0754	15.2866	0	PPLA2	121
3165456	Torre del Greco	40.7893	14.3681	0	PPLA3	85
3169984	Pozzuoli	40.8439	14.0952	0	PPLA3	81
3176059	Giugliano in Campania	40.9285	14.2020	0	PPLA3	80
2525059	Catanzaro	38.8825	16.6009	0	PPLA	78
2524245	Marsala	37.7992	12.4367	0	PPLA3	77
3176477	Fuorigrotta	40.8333	14.2000	0	PPL	76
2524653	Gela	37.0738	14.2404	0	PPLA3	75
2523650	Ragusa	36.9257	14.7244	0	PPLA2	74
3179806	Casoria	40.9075	14.2930	0	PPLA3	73
6534232	Lamezia Terme	38.9626	16.3094	0	PPLA3	70
3183178	Altamura	40.8266	16.5495	0	PPLA3	70
10295350	San Carlo All'Arena	40.8651	14.2629	0	PPLX	69
12070064	Arenella	40.8573	14.2228	0	PPLX	67
2522876	Trapani	38.0176	12.5362	0	PPLA2	67
3179661	Castellammare di Stabia	40.7021	14.4869	0	PPLA3	66
3183455	Afragola	40.9230	14.3094	0	PPLA3	64
2524907	Cosenza	39.2989	16.2531	0	PPLA2	63
2525448	Caltanissetta	37.4903	14.0622	0	PPLA2	62
3173721	Matera	40.6660	16.6046	0	PPLA2	60
3183541	Acerra	40.9448	14.3714	0	PPLA3	59
3170921	Pianura	40.8591	14.1731	0	PPL	57
3170027	Potenza	40.6418	15.8079	0	PPLA	56
2524119	Modica	36.8587	14.7597	0	PPLA3	54
3179337	Cava Dè Tirreni	40.6995	14.7077	0	PPLA3	53
3177363	Ercolano	40.8078	14.3501	0	PPLA3	53
3170116	Portici	40.8156	14.3372	0	PPLA3	53
2525628	Bagheria	38.0789	13.5124	0	PPLA3	53
3182640	Aversa	40.9726	14.2074	0	PPLA3	52
3170206	Ponticelli	40.8542	14.3304	0	PPL	52
2524205	Mazara del Vallo	37.6553	12.5899	0	PPLA3	51
2522713	Vittoria	36.9515	14.5279	0	PPLA3	50
3174021	Marano di Napoli	40.8971	14.1882	0	PPLA3	49
2525790	Acireale	37.6089	15.1658	0	PPLA3	49
12070070	San Lorenzo	40.8569	14.2648	0	PPLX	48
3182650	Avellino	40.9149	14.7910	0	PPLA2	48
3167010	Scafati	40.7602	14.5372	0	PPLA3	48
3182272	Battipaglia	40.6086	14.9821	0	PPLA3	47
2523866	Paternò	37.5667	14.9025	0	PPLA3	46
3180172	Casalnuovo di Napoli	40.9097	14.3421	0	PPLA3	45
3172244	Nocera Inferiore	40.7454	14.6454	0	PPLA3	45
3168309	San Giorgio a Cremano	40.8326	14.3416	0	PPLA3	45
3166465	Soccavo	40.8455	14.1926	0	PPL	45
2524123	Misterbianco	37.5180	15.0091	0	PPLA3	45
3163948	Vomero	40.8428	14.2308	0	PPLX	44
2525755	Alcamo	37.9779	12.9647	0	PPLA3	44
3165475	Torre Annunziata	40.7534	14.4525	0	PPLA3	43
3175860	Gravina in Puglia	40.8175	16.4191	0	PPLA3	42
3166830	Secondigliano	40.9000	14.2667	0	PPL	42
2524013	Nicastro	38.9709	16.3129	0	PPLX	40
2523194	Sciacca	37.5069	13.0840	0	PPLA3	40
12070067	Scampia	40.9035	14.2374	0	PPLX	39
12070058	Chiaia	40.8325	14.2268	0	PPLX	38
3170341	Pomigliano d'Arco	40.9098	14.3832	0	PPLA3	38
2525450	Caltagirone	37.2379	14.5155	0	PPLA3	38
6534256	Quarto	40.8782	14.1435	0	PPLA3	37
3182336	Barra	40.8426	14.3185	0	PPL	36
3173614	Melito di Napoli	40.9195	14.2310	0	PPLA3	36
2524393	Licata	37.1027	13.9397	0	PPLA3	36
2525350	Carini	38.1324	13.1827	0	PPLA3	35
3182765	Arzano	40.9096	14.2652	0	PPLA3	34
3181258	Caivano	40.9575	14.3059	0	PPLA3	34
3172472	Mugnano di Napoli	40.9094	14.2098	0	PPLA3	34
2525769	Adrano	37.6636	14.8328	0	PPLA3	34
2525597	Barcellona Pozzo di Gotto	38.1477	15.2147	0	PPLA3	34
12070065	Avvocata	40.8543	14.2432	0	PPLX	33
3167419	Sant'Antimo	40.9422	14.2348	0	PPLA3	33
3171703	Pagani	40.7420	14.6145	0	PPLA3	32
3166404	Somma Vesuviana	40.8733	14.4386	0	PPLA3	32
2525764	Agrigento	37.3107	13.5766	0	PPLA2	32
2525405	Canicattì	37.3584	13.8479	0	PPLA3	32
2524786	Favara	37.3175	13.6623	0	PPLA3	32
2524236	Mascalucia	37.5746	15.0496	0	PPLA3	32
3183063	Angri	40.7381	14.5707	0	PPLA3	31
2525083	Castelvetrano	37.6808	12.7919	0	PPLA3	31
2524155	Milazzo	38.2201	15.2402	0	PPLA3	31
10294260	Stella	40.8603	14.2522	0	PPLX	30
2525646	Augusta	37.2407	15.2212	0	PPLA3	30
8948704	Monterusciello	40.8687	14.0828	0	PPL	29
3176561	Frattamaggiore	40.9414	14.2759	0	PPLA3	29
3175952	Gragnano	40.6891	14.5204	0	PPLA3	29
3173945	Marigliano	40.9248	14.4561	0	PPLA3	29
3167116	Sarno	40.8075	14.6215	0	PPLA3	28
2525643	Avola	36.9084	15.1394	0	PPLA3	28
2523871	Partinico	38.0466	13.1179	0	PPLA3	28
3170631	Piscinola	40.8930	14.2339	0	PPL	27
6534275	Gravina di Catania	37.5609	15.0629	0	PPLA3	26
3181683	Boscoreale	40.7727	14.4812	0	PPLA3	26
3177438	Eboli	40.6175	15.0569	0	PPLA3	26
3168209	San Giuseppe Vesuviano	40.8356	14.5049	0	PPLA3	26
2524955	Comiso	36.9489	14.6073	0	PPLA3	26
2524006	Niscemi	37.1465	14.3938	0	PPLA3	26
3182599	Bacoli	40.7967	14.0735	0	PPLA3	25
3164153	Villaricca	40.9201	14.1934	0	PPLA3	25
6534264	Orta di Atella	40.9644	14.2685	0	PPLA3	24
3172227	Nola	40.9261	14.5282	0	PPLA3	24
3167327	Santeramo in Colle	40.7924	16.7587	0	PPLA3	24
2525791	Aci Catena	37.6061	15.1417	0	PPLA3	24
2524618	Giarre	37.7244	15.1816	0	PPLA3	24
2524410	Lentini	37.2856	14.9974	0	PPLA3	24
12070066	Montecalvario	40.8444	14.2455	0	PPLX	23
12070059	Chiaiano	40.8810	14.2076	0	PPLX	23
8948706	Casa Santa	38.0251	12.5484	0	PPL	23
3182518	Bagnoli	40.8132	14.1681	0	PPL	23
3173473	Miano	40.8882	14.2534	0	PPL	23
3172243	Nocera Superiore	40.7425	14.6745	0	PPLA3	23
3171778	Ottaviano	40.8519	14.4783	0	PPLA3	23
3170446	Poggioreale	40.8654	14.2888	0	PPL	23
3170335	Pompei	40.7457	14.4970	0	PPLA3	23
3169724	Qualiano	40.9190	14.1535	0	PPLA3	23
3168257	San Giovanni a Teduccio	40.8381	14.3061	0	PPL	23
2525560	Biancavilla	37.6444	14.8668	0	PPLA3	23
2523577	Rossano Stazione	39.5986	16.6349	0	PPL	23
6534268	Volla	40.8736	14.3408	0	PPLA3	22
3180541	Cardito	40.9459	14.2995	0	PPLA3	22
3170055	Posillipo	40.8128	14.2000	0	PPL	22
2524819	Enna	37.5655	14.2743	0	PPLA2	22
2524734	Floridia	37.0834	15.1533	0	PPLA3	22
2523908	Palma di Montechiaro	37.1907	13.7660	0	PPLA3	22
2523664	Quattromiglia	39.3447	16.2380	0	PPL	22
2523513	San Cataldo	37.4841	13.9854	0	PPLA3	22
2523460	San Giovanni la Punta	37.5769	15.0937	0	PPLA3	22
2522960	Termini Imerese	37.9823	13.6973	0	PPLA3	22
2524085	Monreale	38.0812	13.2895	0	PPLA3	21
3183494	Acquaviva delle Fonti	40.8970	16.8433	0	PPLA3	20
3167509	Sant'Anastasia	40.8684	14.4020	0	PPLA3	20
2525070	Castrovillari	39.8163	16.2018	0	PPLA3	20
2523938	Pachino	36.7152	15.0902	0	PPLA3	20
2523535	Sambiase	38.9667	16.2833	0	PPL	20
8948708	Arpino	40.8888	14.3201	0	PPL	19
3170457	Poggiomarino	40.8011	14.5407	0	PPLA3	19
2525498	Bronte	37.7886	14.8338	0	PPLA3	19
2524126	Misilmeri	38.0318	13.4480	0	PPLA3	19
2523581	Rosolini	36.8214	14.9513	0	PPLA3	19
2522776	Vibo Valentia	38.6762	16.1009	0	PPLA2	19
2522767	Villabate	38.0779	13.4428	0	PPLA3	19
12070061	San Ferdinando	40.8334	14.2475	0	PPLX	18
6534267	Casavatore	40.8992	14.2766	0	PPLA3	18
3175458	Ischia	40.7379	13.9486	0	PPLA3	18
3175453	Ischia Porto	40.7391	13.9510	0	PPL	18
3167393	Sant'Antonio Abate	40.7215	14.5402	0	PPLA3	18
2524606	Gioia Tauro	38.4251	15.8975	0	PPLA3	18
2523998	Noto	36.8924	15.0698	0	PPLA3	18
2523902	Palmi	38.3594	15.8515	0	PPLA3	18
2523693	Pozzallo	36.7303	14.8467	0	PPLA3	18
12070069	San Pietro a Patierno	40.8857	14.2901	0	PPLX	17
3183412	Agropoli	40.3492	14.9907	0	PPLA3	17
3179109	Cercola	40.8604	14.3573	0	PPLA3	17
3175743	Grumo Nevano	40.9359	14.2598	0	PPLA3	17
3165737	Terzigno	40.8040	14.4931	0	PPLA3	17
3165240	Trentola-Ducenta	40.9752	14.1749	0	PPLA3	17
2525792	Aci Castello	37.5556	15.1454	0	PPLA3	17
2523796	Piazza Armerina	37.3842	14.3692	0	PPLA3	17
2523619	Ribera	37.4977	13.2668	0	PPLA3	17
2523461	San Giovanni in Fiore	39.2545	16.6970	0	PPLA3	17
12070063	Pendino	40.8471	14.2632	0	PPLX	16
3176097	Ginosa	40.5769	16.7566	0	PPLA3	16
2525571	Belpasso	37.5919	14.9799	0	PPLA3	16
2523927	Palagonia	37.3295	14.7447	0	PPLA3	16
2523705	Porto Empedocle	37.2894	13.5249	0	PPLA3	16
2523192	Scicli	36.7901	14.7028	0	PPLA3	16
2523180	Scordia	37.2955	14.8406	0	PPLA3	16
12070060	Vicaria	40.8615	14.2733	0	PPLX	15
9003711	Corigliano Scalo	39.6271	16.5137	0	PPL	15
3181471	Brusciano	40.9224	14.4239	0	PPLA3	15
3176748	Forio	40.7376	13.8600	0	PPLA3	15
3176560	Frattaminore	40.9558	14.2720	0	PPLA3	15
2523113	Siderno	38.2699	16.2961	0	PPLA3	15
