id	name	lat	lon	capital	code	pop
1263826	Māndvi	21.2553	73.3041	0	PPL	18
1268667	Kadod	21.2172	73.2197	0	PPL	16
1279213	Ahwa	20.7572	73.6863	0	PPL	14
1253425	Vānsada	20.7582	73.3639	0	PPL	12
1253024	Waghāi	20.7705	73.5007	0	PPL	6
