id	name	lat	lon	capital	code	pop
1253363	Vasind	19.4084	73.2629	0	PPL	16
1253610	V훮da	19.6535	73.1481	0	PPL	15
1269106	Jawh훮r	19.9121	73.2268	0	PPL	12
1256747	Sh훮h훮pur	19.4523	73.3257	0	PPL	10
1254177	Trimbak	19.9327	73.5291	0	PPL	10
