id	name	lat	lon	capital	code	pop
1520316	Ust-Kamenogorsk	49.9714	82.6059	0	PPLA	319
1519422	Semey	50.4267	80.2667	0	PPLA	292
1493467	Rubtsovsk	51.5147	81.2061	0	PPL	161
1521370	Ridder	50.3452	83.5156	0	PPLA2	52
1516438	Altay	49.7363	84.2542	0	PPLA2	44
1524245	Kalbatau	49.3301	81.5727	0	PPLA2	22
1519226	Shemonaikha	50.6290	81.9109	0	PPLA2	20
1506260	Gornyak	50.9942	81.4661	0	PPL	15
