id	name	lat	lon	capital	code	pop
53654	Mogadishu	2.0371	45.3438	1	PPLC	2587
415189	Aden	12.7794	45.0367	0	PPLA	863
78754	Mukalla	14.5425	49.1242	0	PPLA	566
64435	Berbera	10.4396	45.0143	0	PPL	242
286621	Şalālah	17.0150	54.0924	0	PPLA	163
63400	Cabudwaaq	6.2458	46.2247	0	PPL	120
63795	Burao	9.5221	45.5336	0	PPLA	99
