id	name	lat	lon	capital	code	pop
2162586	Irymple	-34.2354	142.1710	0	PPL	5
2158100	Merbein	-34.1680	142.0660	0	PPL	2
8348046	Nichols Point	-34.2103	142.2112	0	PPLX	1
8310687	Buronga	-34.1707	142.1735	0	PPL	1
2165065	Gol Gol	-34.1788	142.2215	0	PPL	1
