id	name	lat	lon	capital	code	pop
3948871	Sabaino	-14.3128	-72.9451	0	PPLA3	0
3948841	Huayllati	-13.9286	-72.4850	0	PPLA3	0
3948273	Ayrihuanca	-14.1152	-72.6144	0	PPLA3	0
3941224	Progreso	-14.0722	-72.4765	0	PPLA3	0
3939340	Huaquirca	-14.3399	-72.8946	0	PPLA3	0
3935494	Mamara	-14.2291	-72.5904	0	PPLA3	0
3934737	Mollebamba	-14.4286	-72.9146	0	PPLA3	0
3933720	Pachaconas	-14.2233	-73.0164	0	PPLA3	0
3926737	Turpay	-14.2279	-72.6223	0	PPLA3	0
3926166	Vilcabamba	-14.0778	-72.6251	0	PPLA3	0
