id	name	lat	lon	capital	code	pop
5423092	Glenwood Springs	39.5505	-107.3248	0	PPLA2	9
5424152	Gypsum	39.6469	-106.9517	0	PPL	6
5416113	Carbondale	39.4022	-107.2112	0	PPL	6
5432549	New Castle	39.5728	-107.5364	0	PPL	4
5420923	El Jebel	39.3950	-107.0903	0	PPL	3
5412822	Basalt	39.3689	-107.0328	0	PPL	3
