id	name	lat	lon	capital	code	pop
1691538	Romblon	12.5751	122.2708	0	PPLA3	15
1690514	San Agustin	12.5689	122.1314	0	PPLA3	4
1731730	Alad	12.6168	122.2475	0	PPL	2
1720820	Cajimos	12.5946	122.2753	0	PPL	2
1720481	Calatrava	12.6198	122.0714	0	PPLA3	2
1718324	Carmen	12.6171	122.1211	0	PPL	2
1714557	Dobdoban	12.5747	122.1138	0	PPL	2
1679464	Yook	13.2261	121.9640	0	PPL	2
