id	name	lat	lon	capital	code	pop
2160735	Lakes Entrance	-37.8668	148.0016	0	PPL	4
2153657	Paynesville	-37.9189	147.7194	0	PPL	3
2167962	Eagle Point	-37.9000	147.6833	0	PPL	1
2161996	Kalimna	-37.8701	147.9666	0	PPL	1
2157958	Metung	-37.8915	147.8530	0	PPL	1
2155354	Nicholson	-37.8167	147.7333	0	PPL	1
