id	name	lat	lon	capital	code	pop
7280414	Cole Harbour	44.6724	-63.4751	0	PPLX	20
5951289	Fall River	44.8169	-63.6154	0	PPL	11
6049634	Lantz	44.9834	-63.4820	0	PPL	2
6048347	Lake Echo	44.7334	-63.3820	0	PPL	2
5948870	English Corner	44.7334	-63.7820	0	PPLL	1
5931082	Cow Bay	44.6314	-63.4322	0	PPL	1
