id	name	lat	lon	capital	code	pop
3838823	Río Primero	-31.3333	-63.6167	0	PPL	7
3832763	Villa del Totoral	-30.8167	-63.7167	0	PPLA2	7
3843871	Monte Cristo	-31.3431	-63.9444	0	PPL	6
3835938	Santa Rosa de Río Primero	-31.1523	-63.4019	0	PPLA2	6
3842796	Obispo Trejo	-30.7813	-63.4135	0	PPL	1
3841035	Piquillín	-31.3016	-63.7579	0	PPL	1
