id	name	lat	lon	capital	code	pop
690469	Varva	50.4950	32.7197	0	PPL	7
703438	Ladan	50.5196	32.5818	0	PPL	6
693010	Sribne	50.6638	32.9187	0	PPLA3	3
687009	Zhuravka	50.4811	32.5949	0	PPL	2
710214	Dihtiari	50.5826	32.7701	0	PPL	1
