id	name	lat	lon	capital	code	pop
6138210	Saint-Félix-de-Valois	46.1698	-73.4253	0	PPL	6
5899017	Berthierville	46.0834	-73.1825	0	PPL	4
6138260	Saint-Gabriel	46.3001	-73.3825	0	PPL	2
6065088	Mandeville	46.3668	-73.3491	0	PPL	2
11429024	Sainte-Élisabeth	46.0950	-73.3518	0	PPL	1
11429023	Saint-Norbert	46.1695	-73.3149	0	PPL	1
6137764	Sainte-Béatrix	46.2001	-73.6159	0	PPL	1
6137383	Saint-Ambroise	46.0765	-73.5564	0	PPL	1
