id	name	lat	lon	capital	code	pop
3670756	Río de Oro	8.2919	-73.3849	0	PPLA2	14
3682182	Gamarra	8.3228	-73.7427	0	PPLA2	12
3690584	Ábrego	8.0807	-73.2205	0	PPLA2	10
3670242	San Alberto	7.7611	-73.3922	0	PPLA2	10
3681168	Hacarí	8.3233	-73.1489	0	PPLA2	9
3681990	González	8.3894	-73.3799	0	PPLA2	5
3670011	San Calixto	8.4021	-73.2074	0	PPLA2	2
3678083	La Playa	8.2132	-73.2383	0	PPLA2	1
