id	name	lat	lon	capital	code	pop
3942259	Coracora	-15.0333	-73.7833	0	PPLA3	7
3938326	Incuyo	-15.2493	-73.5705	0	PPLA3	0
3933869	Oyolo	-15.1798	-73.1881	0	PPLA3	0
3933831	Pacapausa	-14.9492	-73.3680	0	PPLA3	0
3930853	Quilcata	-15.2459	-73.4514	0	PPLA3	0
