id	name	lat	lon	capital	code	pop
4303543	Paintsville	37.8145	-82.8071	0	PPLA2	4
4299275	Louisa	38.1142	-82.6032	0	PPLA2	2
4826592	Wayne	38.2215	-82.4424	0	PPLA2	1
4311959	Van Lear	37.7712	-82.7579	0	PPL	1
4295878	Inez	37.8665	-82.5388	0	PPLA2	0
