id	name	lat	lon	capital	code	pop
4229763	Waycross	31.2137	-82.3557	0	PPLA2	14
4215163	Pearson	31.2977	-82.8524	0	PPLA2	2
4201144	Homerville	31.0366	-82.7471	0	PPLA2	2
4191144	Deenwood	31.2220	-82.3872	0	PPL	2
4225215	Sunnyside	31.2394	-82.3421	0	PPL	1
