id	name	lat	lon	capital	code	pop
4161187	Lake City	30.1897	-82.6393	0	PPLA2	12
4160102	Jasper	30.5183	-82.9482	0	PPLA2	4
4177698	Wellborn	30.2311	-82.8196	0	PPL	2
4177542	Watertown	30.1925	-82.6146	0	PPL	2
4155502	Five Points	30.2091	-82.6373	0	PPL	1
