id	name	lat	lon	capital	code	pop
415189	Aden	12.7794	45.0367	0	PPLA	863
78754	Mukalla	14.5425	49.1242	0	PPLA	566
64013	Bosaso	11.2842	49.1816	0	PPLA	74
79836	Al Bayda	13.9852	45.5727	0	PPLA	37
77726	Ataq	14.5377	46.8319	0	PPLA	37
69426	ZinjibƒÅr	13.1287	45.3807	0	PPLA	19
72968	Ma'rib	15.4625	45.3258	0	PPLA	16
53157	Qandala	11.4720	49.8728	0	PPL	15
