id	name	lat	lon	capital	code	pop
1271871	Fort Gloster	22.5044	88.1833	0	PPL	18
1348775	Mahiari	22.5883	88.2354	0	PPL	17
1264368	Mahīshādal	22.1862	87.9807	0	PPL	17
1278703	Āmta	22.5834	88.0104	0	PPL	16
1349047	Solap	22.1278	88.1586	0	PPL	13
1348789	Raghudebbati	22.5256	88.1958	0	PPL	12
1348791	Gobindapur	22.5931	88.0914	0	PPL	11
1348776	Masila	22.5808	88.2328	0	PPL	11
1348788	Sāhāpur	22.5244	88.1669	0	PPL	7
1277155	Bara Bazar	22.5667	88.3500	0	PPLX	7
