id	name	lat	lon	capital	code	pop
8400149	Wushan	30.9372	107.9466	0	PPLA4	19
1802501	Longmen	30.7982	107.6871	0	PPLA4	19
8403846	Danzi	30.8570	108.0059	0	PPLA4	18
8403605	Houshan	30.8259	108.0287	0	PPLA4	15
8400060	Tianhe	31.2876	108.1934	0	PPLA4	14
8400061	Sanhuikou	31.2551	108.1003	0	PPLA4	13
8405734	Wenhua	30.8144	107.7744	0	PPLA4	12
8405735	Fuping	30.7720	107.8800	0	PPLA4	5
8400148	Wutong	30.8896	108.0566	0	PPLA4	5
