id	name	lat	lon	capital	code	pop
1905846	Bibo	26.5308	107.6314	0	PPL	18
1905431	Kaitang	26.7203	108.1297	0	PPL	18
1802695	Longchang	26.6667	107.9167	0	PPL	18
1791762	Wanshui	26.7353	107.9872	0	PPL	17
1784089	Zhouxi	26.4833	107.9167	0	PPL	16
1792188	Wanchao	26.6000	107.8500	0	PPL	12
