id	name	lat	lon	capital	code	pop
4859343	Grinnell	41.7430	-92.7224	0	PPL	9
4878703	Toledo	41.9956	-92.5769	0	PPLA2	2
4878229	Tama	41.9667	-92.5769	0	PPL	2
4848106	Belle Plaine	41.8969	-92.2782	0	PPL	2
4867775	Montezuma	41.5858	-92.5274	0	PPLA2	1
4849448	Brooklyn	41.7336	-92.4455	0	PPL	1
