id	name	lat	lon	capital	code	pop
4345850	West Monroe	32.5185	-92.1476	0	PPL	12
4320107	Claiborne	32.5160	-92.1918	0	PPL	11
4326074	Grambling	32.5277	-92.7140	0	PPL	5
4329308	Jonesboro	32.2413	-92.7160	0	PPLA2	4
4318055	Brownsville	32.4871	-92.1543	0	PPL	4
4315611	Bawcomville	32.4704	-92.1674	0	PPL	3
4320154	Clarks	32.0266	-92.1390	0	PPL	1
