id	name	lat	lon	capital	code	pop
1279126	Akhnūr	32.8667	74.7333	0	PPL	12
1275466	Bishnāh	32.6106	74.8556	0	PPL	11
1267448	Katra	32.9917	74.9320	0	PPL	9
1258167	Riāsi	33.0812	74.8324	0	PPL	8
1266829	Khaur	32.6027	74.8092	0	PPL	6
1439622	Gho Brāhmanān de	32.5559	74.9539	0	PPL	4
1431732	Jauriān	32.8325	74.5761	0	PPL	3
