id	name	lat	lon	capital	code	pop
1184075	Baddomalhi	31.9904	74.6641	0	PPL	18
1268475	Kalanaur	32.0123	75.1506	0	PPL	13
1175297	Kalaswala	32.2008	74.6486	0	PPL	12
1278373	Norīa	32.5209	74.7985	0	PPL	9
1273173	Derā Nānak	32.0373	75.0279	0	PPL	7
1258708	Rām Dās	31.9674	74.9087	0	PPL	6
1172909	Kot Rajkour	32.4121	74.6286	0	PPL	1
