id	name	lat	lon	capital	code	pop
1274394	Chetput	13.0700	80.2408	0	PPLX	18
1261835	N훮rav훮rikuppam	13.1913	80.1847	0	PPL	18
1465825	Madipakkam	12.9623	80.1986	0	PPL	16
9212568	Neelankarai	12.9495	80.2592	0	PPL	15
9212571	Palavakkam	12.9535	80.2572	0	PPLX	14
1263997	Seven Pagodas	12.6209	80.1933	0	PPL	12
1465595	Chinnasekkadu	13.1609	80.2573	0	PPL	10
1271714	G훮ndh카 Nagar	13.0064	80.2542	0	PPLX	9
1465624	Manappakkam	13.0108	80.1686	0	PPL	8
1465868	Vengavasal	12.8991	80.1690	0	PPL	3
