id	name	lat	lon	capital	code	pop
1227037	Tangalle	6.0234	80.7974	0	PPL	10
11979654	Mirissa city	5.9466	80.4583	0	PPL	4
1239829	Koggala	5.9886	80.3286	0	PPL	3
1227217	Talpe	5.9999	80.2787	0	PPL	3
1225514	Unawatuna	6.0212	80.2503	0	PPL	2
