id	name	lat	lon	capital	code	pop
3159822	Bryne	58.7354	5.6477	0	PPLA2	12
3158792	Egersund	58.4513	5.9997	0	PPLA2	11
3145080	Nærbø	58.6655	5.6379	0	PPL	4
3132644	Varhaug	58.6181	5.6570	0	PPLA2	3
11748571	Lyefjell	58.7354	5.7362	0	PPL	2
3131824	Vigrestad	58.5710	5.6818	0	PPL	1
3131683	Vikeså	58.6376	6.0913	0	PPLA2	1
