id	name	lat	lon	capital	code	pop
2964320	Fermoy	52.1358	-8.2758	0	PPL	6
2961192	Tipperary	52.4733	-8.1558	0	PPL	4
2965873	Cahir	52.3769	-7.9217	0	PPL	3
2962587	Mitchelstown	52.2658	-8.2681	0	PPL	3
2963184	Kilworth	52.1764	-8.2442	0	PPL	1
2962898	Lismore	52.1367	-7.9308	0	PPL	1
2961924	Rathcormac	52.0769	-8.2819	0	PPL	1
