id	name	lat	lon	capital	code	pop
2616015	Nyborg	55.3127	10.7896	0	PPLA2	17
2618361	Korsør	55.3299	11.1386	0	PPL	14
2611307	Tranekær	54.9976	10.8438	0	PPL	12
2617936	Langeskov	55.3565	10.5845	0	PPL	4
2611742	Thurø By	55.0474	10.6639	0	PPL	3
2610942	Ullerslev	55.3617	10.6519	0	PPL	2
2610207	Vindeby	55.0449	10.6131	0	PPL	2
2615718	Ørbæk	55.2585	10.6707	0	PPL	1
2611227	Troense	55.0332	10.6436	0	PPL	1
