id	name	lat	lon	capital	code	pop
3671308	Puerto Triunfo	5.8726	-74.6405	0	PPLA2	17
3686158	Cocorná	6.0573	-75.1852	0	PPLA2	14
3669056	San Rafael	6.2944	-75.0259	0	PPLA2	12
3681952	Granada	6.1435	-75.1853	0	PPLA2	9
3670000	San Carlos	6.1879	-74.9931	0	PPLA2	7
3681368	Guatapé	6.2343	-75.1633	0	PPL	5
3689611	Argelia	5.7313	-75.1426	0	PPLA2	3
3684692	El Carmen	5.8878	-75.1642	0	PPL	2
