id	name	lat	lon	capital	code	pop
2610726	Varde	55.6211	8.4807	0	PPLA2	14
2621193	Grindsted	55.7573	8.9275	0	PPLA2	9
2610634	Vejen	55.4812	9.1380	0	PPLA2	8
2623570	Bramming	55.4695	8.7001	0	PPL	7
2624144	Billund	55.7335	9.1078	0	PPL	6
2623321	Brørup	55.4819	9.0176	0	PPL	4
2620042	Holsted	55.5109	8.9187	0	PPL	3
2611610	Tjæreborg	55.4646	8.5797	0	PPL	2
2623973	Bække	55.5703	9.1397	0	PPL	1
2611653	Tistrup	55.7236	8.6103	0	PPL	1
2610025	Vorbasse	55.6299	9.0824	0	PPL	1
