id	name	lat	lon	capital	code	pop
147368	Ordubad	38.9096	46.0227	0	PPLA2	9
146958	YaycÄ±	38.9405	45.7324	0	PPL	8
148225	Deste	38.8837	45.9096	0	PPL	4
174823	Meghri	38.9029	46.2446	0	PPL	4
147283	Sumbatan-diza	38.9480	45.8257	0	PPL	1
174918	Dzorastan	39.2706	46.3572	0	PPL	1
