id	name	lat	lon	capital	code	pop
5881576	Pago Pago	-14.2781	-170.7025	1	PPLC	11
5881192	Tāfuna	-14.3358	-170.7200	0	PPL	7
5881347	Leone	-14.3439	-170.7850	0	PPL	4
5881224	Faleniu	-14.3325	-170.7444	0	PPL	3
5881442	Mapusagafou	-14.3306	-170.7528	0	PPL	2
5880828	Aūa	-14.2761	-170.6639	0	PPL	2
5881410	Malaeimi	-14.3228	-170.7339	0	PPL	1
5881241	Fagatogo	-14.2825	-170.6900	0	PPL	1
5880944	Vailoatai	-14.3534	-170.7808	0	PPL	1
5880891	Vaitogi	-14.3526	-170.7380	0	PPL	1
