id	name	lat	lon	capital	code	pop
3853331	Justiniano Posse	-32.8841	-62.6779	0	PPL	7
3855719	Etruria	-32.9401	-63.2466	0	PPL	3
3843647	Morrison	-32.5948	-62.8346	0	PPL	3
3842593	Ord칩침ez	-32.8406	-62.8655	0	PPL	2
3841912	Pascanas	-33.1255	-63.0408	0	PPL	2
3861595	Chaz칩n	-33.0787	-63.2766	0	PPL	1
3853923	Idiaz치bal	-32.8141	-63.0325	0	PPL	1
