id	name	lat	lon	capital	code	pop
2248752	Matam	15.6559	-13.2554	0	PPLA	17
2246922	Ouro Sogui	15.6059	-13.3223	0	PPL	15
2245427	Sintiou Bamambé	15.3674	-13.1347	0	PPL	13
2250849	Kanel	15.4916	-13.1763	0	PPL	12
2254689	Amady Ounaré	15.3471	-13.0165	0	PPL	10
2247341	Nguidjlone	15.9405	-13.3514	0	PPL	10
2247108	Odobéré	15.5614	-13.0986	0	PPL	6
