id	name	lat	lon	capital	code	pop
9191693	Goderich	8.4276	-13.2860	0	PPLX	19
2406145	Mambolo	8.9186	-13.0367	0	PPL	6
2407899	Kassiri	8.9381	-13.1154	0	PPL	5
2403407	Tintafor	8.6267	-13.2150	0	PPL	5
2404607	Pepel	8.5861	-13.0544	0	PPL	4
2566569	Konakridee	8.6978	-13.2392	0	PPL	3
2406067	Mange	8.9226	-12.8569	0	PPL	3
2405701	Masoyila	8.6112	-13.1910	0	PPL	3
2404067	Sawkta	8.6323	-13.2025	0	PPL	3
