id	name	lat	lon	capital	code	pop
5803818	Montesano	46.9812	-123.6027	0	PPLA2	3
5793687	Elma	47.0034	-123.4088	0	PPL	3
5808524	Rochester	46.8218	-123.0962	0	PPL	2
5807986	Raymond	46.6865	-123.7329	0	PPL	2
5789668	Central Park	46.9734	-123.6924	0	PPL	2
