id	name	lat	lon	capital	code	pop
6205093	Rosedale	-46.3884	168.3601	0	PPLX	7
2185302	Otatara	-46.4333	168.3000	0	PPL	3
6205166	Strathern	-46.4284	168.3601	0	PPLX	2
2206968	Winton	-46.1500	168.3333	0	PPL	2
2180255	Waikiwi	-46.3833	168.3333	0	PPL	2
6205165	Clifton	-46.4484	168.3601	0	PPLX	1
6205095	Hawthorndale	-46.3984	168.3801	0	PPLX	1
