id	name	lat	lon	capital	code	pop
3982287	Teacapan	22.5396	-105.7362	0	PPL	4
3991141	Quimichis	22.3612	-105.5391	0	PPL	3
4012399	Palmar de Cuautla	22.2197	-105.6475	0	PPL	1
3995919	Milpas Viejas	22.3648	-105.4755	0	PPL	1
3984515	Santa Cruz	21.9812	-105.6017	0	PPL	1
3976187	Cristo Rey	22.5817	-105.7244	0	PPL	1
