id	name	lat	lon	capital	code	pop
1529102	Ürümqi	43.8010	87.6005	0	PPLA	3029
1529195	Shihezi	44.3023	86.0369	0	PPLA3	572
1529376	Korla	41.7606	86.1523	0	PPLA2	549
1529114	Turpan	42.9477	89.1789	0	PPLA2	273
1529569	Changji	44.0078	87.3046	0	PPLA2	198
1529099	Wusu	44.4310	84.6762	0	PPLA3	72
1529528	Dushanzi	44.3333	84.8500	0	PPLA3	69
1529239	Sandaohezi	44.3260	85.6201	0	PPLA3	60
