id	name	lat	lon	capital	code	pop
2015051	Trudovoye	43.2982	132.0688	0	PPL	18
2014571	Uglovoye	43.3281	132.0883	0	PPL	12
2015455	Tavrichanka	43.3255	131.8626	0	PPL	8
2017478	Razdol’noye	43.5389	131.8969	0	PPL	7
2013332	Vol’no-Nadezhdinskoye	43.3750	131.9967	0	PPL	6
6422876	Novyy	43.3644	132.0211	0	PPL	5
8260661	Emar	43.2042	132.1564	0	PPL	3
2027142	Barabash	43.1995	131.4918	0	PPL	3
2017626	Primorskiy	43.0996	131.5894	0	PPL	1
