id	name	lat	lon	capital	code	pop
5785243	Aberdeen	46.9754	-123.8157	0	PPL	16
5797693	Hoquiam	46.9809	-123.8893	0	PPL	8
5805505	Ocean Shores	46.9737	-124.1563	0	PPL	5
5815665	Westport	46.8901	-124.1041	0	PPL	2
5811211	South Bend	46.6632	-123.8046	0	PPLA2	1
5790966	Cosmopolis	46.9554	-123.7738	0	PPL	1
