id	name	lat	lon	capital	code	pop
5570065	Red Bluff	40.1785	-122.2358	0	PPLA2	14
5339614	Corning	39.9277	-122.1792	0	PPL	7
5561894	Cottonwood	40.3857	-122.2808	0	PPL	3
5567220	Los Molinos	40.0213	-122.1003	0	PPL	2
5564132	Gerber	40.0563	-122.1503	0	PPL	1
