id	name	lat	lon	capital	code	pop
632542	Vammala	61.3333	22.9000	0	PPLA3	14
846664	Äetsä	61.2949	22.7046	0	PPL	4
648613	Lavia	61.6000	22.6000	0	PPL	2
645800	Mouhijärvi	61.5000	23.0167	0	PPLA3	2
652878	Kiikoinen	61.4539	22.5770	0	PPL	1
635780	Suodenniemi	61.5581	22.7853	0	PPL	1
