id	name	lat	lon	capital	code	pop
727832	Radomir	42.5457	22.9655	0	PPL	14
733151	Bobov Dol	42.3626	23.0032	0	PPLA2	6
727628	Rila	42.1333	23.1333	0	PPL	3
730268	Kocherinovo	42.0844	23.0571	0	PPL	2
725402	Zemen	42.4789	22.7492	0	PPL	2
733153	Boboshevo	42.1530	23.0015	0	PPL	1
728818	Nevestino	42.2555	22.8517	0	PPLA2	0
