id	name	lat	lon	capital	code	pop
4301345	Morganfield	37.6834	-87.9167	0	PPLA2	3
4299842	Marion	37.3328	-88.0811	0	PPLA2	2
4310030	Sturgis	37.5467	-87.9839	0	PPL	1
4249830	Shawneetown	37.7131	-88.1867	0	PPLA2	1
4248482	Rosiclare	37.4237	-88.3461	0	PPL	1
4239519	Golconda	37.3673	-88.4864	0	PPLA2	0
