id	name	lat	lon	capital	code	pop
4636463	Lexington	35.6509	-88.3934	0	PPLA2	7
4643150	Mount Carmel	35.4978	-88.0078	0	PPL	5
4631422	Huntingdon	36.0006	-88.4281	0	PPLA2	3
4648217	Parsons	35.6498	-88.1267	0	PPL	2
4645255	New Johnsonville	36.0212	-87.9670	0	PPL	1
4617664	Decaturville	35.5842	-88.1195	0	PPLA2	0
