id	name	lat	lon	capital	code	pop
4416192	Amory	33.9843	-88.4881	0	PPL	7
4065965	Hamilton	34.1423	-87.9886	0	PPLA2	6
4415813	Aberdeen	33.8251	-88.5437	0	PPLA2	5
4427345	Fulton	34.2740	-88.4092	0	PPLA2	4
4065524	Guin	33.9657	-87.9147	0	PPL	2
4095392	Vernon	33.7570	-88.1089	0	PPLA2	1
4092267	Sulligent	33.9018	-88.1345	0	PPL	1
