id	name	lat	lon	capital	code	pop
3530691	Chunhuhub	19.5853	-88.5922	0	PPL	4
3516702	Señor	19.8442	-88.1352	0	PPL	3
3823040	Presidente Juárez	19.3284	-88.5616	0	PPL	1
3823035	X-Hazil Sur	19.3917	-88.0742	0	PPL	1
3529628	Dzula	19.6033	-88.4157	0	PPL	1
3521293	Polyuc	19.6089	-88.5615	0	PPL	1
3514388	X-pichil	19.6953	-88.3768	0	PPL	1
