id	name	lat	lon	capital	code	pop
4410669	Sullivan	38.2081	-91.1604	0	PPL	7
4383070	Cuba	38.0628	-91.4035	0	PPL	3
4404348	Potosi	37.9364	-90.7879	0	PPLA2	2
4410113	Steelville	37.9681	-91.3549	0	PPLA2	1
4378027	Bourbon	38.1548	-91.2440	0	PPL	1
