id	name	lat	lon	capital	code	pop
4111382	Forrest City	35.0082	-90.7898	0	PPLA2	14
4137215	Wynne	35.2245	-90.7868	0	PPLA2	8
4103042	Brinkley	34.8879	-91.1946	0	PPL	2
4099952	Augusta	35.2823	-91.3654	0	PPLA2	2
4120981	McCrory	35.2562	-91.2001	0	PPL	1
