id	name	lat	lon	capital	code	pop
4422106	Cleveland	33.7440	-90.7248	0	PPL	12
4107823	De Witt	34.2929	-91.3379	0	PPL	3
4445737	Shelby	33.9509	-90.7679	0	PPL	2
4125668	Pea Ridge	33.9207	-91.3368	0	PPL	2
4828755	Rosedale	33.8534	-91.0279	0	PPL	1
4436772	Mound Bayou	33.8782	-90.7273	0	PPL	1
