id	name	lat	lon	capital	code	pop
3520161	Sabancuy	18.9727	-91.1778	0	PPL	7
8675023	Xbacab	18.9414	-90.7219	0	PPL	1
3820944	Abelardo L. Rodríguez	18.7284	-90.9046	0	PPL	1
3820862	San Pablo Pixtún	19.1336	-90.7319	0	PPL	1
3530990	Chicbul	18.7756	-90.9243	0	PPL	1
