id	name	lat	lon	capital	code	pop
11778440	Candelaria	18.1857	-91.0453	0	PPLA2	9
3821047	División del Norte	18.5295	-90.7642	0	PPL	3
8859415	Licenciado Gustavo Díaz Ordaz (18 de Marzo)	18.6322	-91.0028	0	PPL	1
8674961	Don Samuel	18.3600	-90.8572	0	PPL	1
3821253	Benito Juárez Uno	18.2769	-91.0991	0	PPL	1
3821244	El Naranjo	18.0219	-91.1265	0	PPL	1
3821075	Mamantel	18.5251	-91.0888	0	PPL	1
3821049	Haro	18.4442	-90.7915	0	PPL	1
