id	name	lat	lon	capital	code	pop
8859400	Santo Domingo de las Palmas	16.1367	-91.3219	0	PPL	1
3523577	Maravilla Tenejapa	16.1415	-91.2960	0	PPLA2	1
3521566	Zamora Pico de Oro	16.3320	-90.7656	0	PPL	1
3520857	Ramón F. Balboa	16.4743	-91.4032	0	PPL	1
3517929	San Quintín	16.4067	-91.3457	0	PPL	1
