id	name	lat	lon	capital	code	pop
1180374	Daur	26.4553	68.3183	0	PPL	17
1183511	Bandhi	26.5876	68.3021	0	PPL	8
1180453	Darya Khan Marri	26.6776	68.2867	0	PPL	8
1174815	Karaundi	26.8971	68.4064	0	PPL	8
1175012	Kandiari	26.9155	68.5219	0	PPL	6
