id	name	lat	lon	capital	code	pop
2644210	Liverpool	53.4106	-2.9779	0	PPLA2	864
2638077	Sheffield	53.3830	-1.4659	0	PPLA2	556
2644688	Leeds	53.7965	-1.5478	0	PPLA2	516
2643123	Manchester	53.4809	-2.2374	0	PPLA2	395
2644668	Leicester	52.6386	-1.1317	0	PPLA2	368
2654993	Bradford	53.7939	-1.7521	0	PPLA2	366
2655613	Birkenhead	53.3934	-3.0148	0	PPL	325
2641170	Nottingham	52.9536	-1.1505	0	PPLA2	323
2645425	Kingston upon Hull	53.7446	-0.3352	0	PPLA2	314
2639912	Preston	53.7628	-2.7045	0	PPLA2	313
2641673	Newcastle upon Tyne	54.9733	-1.6140	0	PPLA2	300
2651347	Derby	52.9228	-1.4766	0	PPLA2	270
2633691	Wolverhampton	52.5855	-2.1230	0	PPLA2	263
2636841	Stoke-on-Trent	53.0042	-2.1854	0	PPLA2	258
2641022	Oldham	53.5405	-2.1183	0	PPLA2	237
2650839	Dudley	52.5000	-2.0833	0	PPLA2	199
2638785	St Helens	53.4500	-2.7333	0	PPLA2	183
2633948	Wigan	53.5430	-2.6371	0	PPLA2	175
2634853	Walsall	52.5853	-1.9840	0	PPLA2	172
2634739	Warrington	53.3925	-2.5802	0	PPLA2	172
2643097	Mansfield	53.1333	-1.2000	0	PPL	171
2636531	Sunderland	54.9046	-1.3822	0	PPLA2	170
2640354	Peterborough	52.5736	-0.2478	0	PPLA2	163
2633352	York	53.9576	-1.0827	0	PPLA2	156
3345439	Telford	52.6766	-2.4493	0	PPLA2	155
2654264	Burnley	53.8000	-2.2333	0	PPLA4	149
2646458	Huddersfield	53.6490	-1.7842	0	PPLA2	149
2655524	Blackburn	53.7500	-2.4833	0	PPLA2	146
2655459	Blackpool	53.8167	-3.0500	0	PPLA2	145
2642607	Middlesbrough	54.5762	-1.2348	0	PPLA2	142
2655237	Bolton	53.5833	-2.4333	0	PPLA2	141
2636882	Stockport	53.4098	-2.1576	0	PPLA2	139
2634491	West Bromwich	52.5187	-1.9945	0	PPL	135
2641674	Newcastle under Lyme	53.0000	-2.2333	0	PPL	129
2638671	Salford	53.4877	-2.2904	0	PPLA2	129
2654200	Burton upon Trent	52.8073	-1.6426	0	PPL	122
2639093	Rotherham	53.4301	-1.3568	0	PPLA2	117
2653225	Chesterfield	53.2500	-1.4167	0	PPL	113
2651123	Doncaster	53.5228	-1.1312	0	PPLA2	113
2634910	Wakefield	53.6833	-1.4977	0	PPLA2	109
2636486	Sutton Coldfield	52.5667	-1.8167	0	PPL	107
2644487	Lincoln	53.2268	-0.5379	0	PPLA2	103
2639272	Rochdale	53.6177	-2.1552	0	PPLA2	97
8299617	High Peak	53.3680	-1.8454	0	PPLL	92
2651513	Darlington	54.5243	-1.5504	0	PPLA2	92
2641157	Nuneaton	52.5232	-1.4652	0	PPL	92
2637343	Southport	53.6458	-3.0101	0	PPLA2	91
2653228	Chester	53.1905	-2.8919	0	PPLA2	90
2647428	Harrogate	53.9908	-1.5373	0	PPL	89
2647400	Hartlepool	54.6855	-1.2103	0	PPLA2	88
2653883	Cannock	52.6904	-2.0309	0	PPL	86
2647878	Grimsby	53.5654	-0.0755	0	PPLA2	86
2637329	South Shields	54.9986	-1.4323	0	PPLA2	83
2647632	Halifax	53.7167	-1.8500	0	PPLA2	82
2638324	Scunthorpe	53.5791	-0.6544	0	PPLA2	81
2636276	Tamworth	52.6340	-1.6959	0	PPL	81
2636876	Stockton-on-Tees	54.5685	-1.3187	0	PPLA2	79
2653775	Carlisle	54.8951	-2.9382	0	PPLA2	78
2648773	Gateshead	54.9621	-1.6017	0	PPLA2	77
2648970	Fylde	53.8333	-2.9167	0	PPL	76
2637891	Shrewsbury	52.7101	-2.7521	0	PPLA2	76
2652002	Crewe	53.0979	-2.4416	0	PPL	75
2650405	East Kilbride	55.7641	-4.1767	0	PPL	74
2656284	Barnsley	53.5500	-1.4833	0	PPLA2	71
2637142	Stafford	52.8052	-2.1164	0	PPLA2	70
8299614	Rossendale	53.6846	-2.2769	0	PPLL	67
2643567	Loughborough	52.7667	-1.2000	0	PPL	65
2633485	Wrexham	53.0466	-2.9913	0	PPLA2	65
2654394	Buckley	53.1667	-3.0833	0	PPLA3	63
2643266	Macclesfield	53.2602	-2.1256	0	PPL	63
2638960	Runcorn	53.3417	-2.7312	0	PPL	62
2654187	Bury	53.6000	-2.3000	0	PPLA2	61
2650096	Ellesmere Port Town	53.2788	-2.9013	0	PPL	61
2638419	Scarborough	54.2797	-0.4044	0	PPL	61
2633954	Widnes	53.3618	-2.7341	0	PPLA2	61
2653584	Castleford	53.7259	-1.3626	0	PPL	60
2634873	Wallasey	53.4232	-3.0650	0	PPLA2	58
2655198	Bootle	53.4667	-3.0167	0	PPL	57
2642189	Morley	53.7401	-1.5988	0	PPLA3	57
2652381	Corby	52.4964	-0.6894	0	PPL	56
2651286	Dewsbury	53.6908	-1.6291	0	PPL	56
2638678	Sale	53.4252	-2.3244	0	PPL	55
2647570	Hamilton	55.7667	-4.0333	0	PPLA2	54
2646329	Huyton	53.4115	-2.8394	0	PPL	54
2642814	Meikle Earnock	55.7500	-4.0333	0	PPL	54
2634715	Washington	54.9000	-1.5167	0	PPL	53
3209584	Crosby	53.4778	-3.0333	0	PPL	52
2642214	Morecambe	54.0684	-2.8611	0	PPL	51
2656168	Batley	53.7029	-1.6337	0	PPL	50
2645889	Keighley	53.8679	-1.9066	0	PPLA3	50
2634493	West Bridgford	52.9298	-1.1254	0	PPL	48
2650628	Durham	54.7768	-1.5757	0	PPLA2	47
2644972	Lancaster	54.0465	-2.7999	0	PPL	47
2643697	Long Eaton	52.8986	-1.2714	0	PPL	47
2641224	Northwich	53.2588	-2.5202	0	PPL	47
2635785	Tipton	52.5296	-2.0677	0	PPL	47
2656708	Ayr	55.4627	-4.6339	0	PPLA2	46
2650798	Dumfries	55.0696	-3.6114	0	PPLA2	46
2645605	Kilmarnock	55.6117	-4.4958	0	PPLA2	46
2656241	Barrow in Furness	54.1109	-3.2276	0	PPL	45
2646867	Hinckley	52.5389	-1.3761	0	PPL	45
2642593	Middleton	53.5500	-2.2000	0	PPL	45
2640132	Pontefract	53.6911	-1.3127	0	PPL	44
2656915	Ashton-under-Lyne	53.4888	-2.0989	0	PPLA2	43
2648208	Grantham	52.9115	-0.6418	0	PPL	43
2648026	Great Sankey	53.3923	-2.6399	0	PPL	43
2644660	Leigh	53.4964	-2.5197	0	PPL	43
2641731	Newark on Trent	53.0667	-0.8167	0	PPL	43
2636484	Sutton in Ashfield	53.1254	-1.2613	0	PPL	43
2633551	Worksop	53.3018	-1.1240	0	PPL	43
2645313	Kirkby	53.4814	-2.8921	0	PPL	42
2634864	Wallsend	54.9911	-1.5340	0	PPLA2	42
6693470	Lytham St Annes	53.7426	-2.9970	0	PPL	41
2657402	Altrincham	53.3875	-2.3485	0	PPL	41
2655138	Boston	52.9763	-0.0266	0	PPL	41
2641690	Newburn	54.9876	-1.7441	0	PPL	41
2636663	Stretford	53.4500	-2.3167	0	PPLA2	41
2635062	Urmston	53.4485	-2.3542	0	PPL	41
2655329	Bloxwich	52.6181	-2.0043	0	PPL	40
2639928	Prescot	53.4295	-2.8003	0	PPLA3	40
2636465	Swadlincote	52.7740	-1.5574	0	PPL	40
2641267	North Shields	55.0165	-1.4492	0	PPL	39
2652698	Coalville	52.7225	-1.3702	0	PPL	38
2646274	Ilkeston	52.9706	-1.3095	0	PPL	38
2637752	Skelmersdale	53.5502	-2.7735	0	PPL	38
2634032	Whitley Bay	55.0397	-1.4471	0	PPL	38
2657030	Arnold	53.0000	-1.1333	0	PPL	37
2655315	Blyth	55.1271	-1.5086	0	PPLA3	37
2650278	Eccles	53.4833	-2.3333	0	PPL	37
2646525	Houghton-Le-Spring	54.8403	-1.4643	0	PPL	37
2644547	Leyland	53.6979	-2.6876	0	PPL	37
2640349	Peterlee	54.7603	-1.3365	0	PPL	37
2639563	Redcar	54.6166	-1.0600	0	PPL	37
2633397	Yeadon	53.8644	-1.6874	0	PPL	37
2653224	Chester-le-Street	54.8586	-1.5741	0	PPL	36
2633883	Wilmslow	53.3280	-2.2315	0	PPL	36
2657770	Accrington	53.7538	-2.3586	0	PPL	35
2655664	Billingham	54.5888	-1.2903	0	PPL	35
2654728	Bridlington	54.0831	-0.1919	0	PPLA3	35
2635281	Tyldesley	53.5139	-2.4675	0	PPL	35
2634887	Walkden	53.5167	-2.4000	0	PPL	35
6691227	Radcliffe	53.5618	-2.3245	0	PPL	34
2655882	Bentley	53.5333	-1.1500	0	PPL	34
2652513	Colwyn Bay	53.2948	-3.7267	0	PPL	34
2649578	Felling	54.9530	-1.5715	0	PPL	34
2646032	Irvine	55.6194	-4.6551	0	PPLA2	34
2653086	Chorley	53.6500	-2.6167	0	PPLA3	33
2652095	Cramlington	55.0865	-1.5860	0	PPLA3	33
2648405	Glossop	53.4432	-1.9490	0	PPL	33
2639866	Pudsey	53.7954	-1.6613	0	PPL	33
2634616	Wednesfield	52.5963	-2.0851	0	PPL	33
2633936	Wigston Magna	52.5813	-1.0925	0	PPL	33
12076699	Washwood Heath	52.5005	-1.8266	0	PPLX	32
8299616	Deeside	53.2005	-3.0384	0	PPLL	32
2656867	Aston	52.5000	-1.8833	0	PPLX	32
2654715	Brighouse	53.7032	-1.7843	0	PPL	32
2652885	Cleethorpes	53.5605	-0.0323	0	PPL	32
2651495	Darwen	53.6980	-2.4649	0	PPL	32
2644531	Lichfield	52.6815	-1.8255	0	PPL	32
2639897	Prestwich	53.5333	-2.2833	0	PPL	32
8299615	Thornton-Cleveleys	53.8739	-3.0224	0	PPLL	31
2646327	Hyde	53.4513	-2.0794	0	PPL	31
2637265	Spalding	52.7871	-0.1514	0	PPL	31
2655785	Beverley	53.8459	-0.4233	0	PPLA2	30
2633810	Winsford	53.1915	-2.5240	0	PPLA3	30
2633765	Wishaw	55.7667	-3.9167	0	PPL	30
2656918	Ashton in Makerfield	53.4833	-2.6500	0	PPL	29
2654252	Burntwood	52.6808	-1.9276	0	PPL	29
2652437	Consett	54.8540	-1.8316	0	PPL	29
2647026	Heswall	53.3273	-3.0965	0	PPL	29
2646460	Hucknall	53.0333	-1.2000	0	PPL	29
2645826	Kendal	54.3268	-2.7476	0	PPL	29
2645721	Kidsgrove	53.0869	-2.2378	0	PPL	29
2641810	Nelson	53.8333	-2.2000	0	PPL	29
6691235	Heywood	53.5924	-2.2194	0	PPLX	28
2653290	Cheadle Hulme	53.3761	-2.1897	0	PPL	28
2637958	Shipley	53.8333	-1.7667	0	PPL	28
11776857	Burngreave	53.3930	-1.4579	0	PPL	27
2656946	Ashington	55.1772	-1.5641	0	PPLA3	27
2652890	Cleckheaton	53.7240	-1.7129	0	PPL	27
2651357	Denton	53.4568	-2.1182	0	PPL	27
2645972	Jarrow	54.9804	-1.4842	0	PPL	27
2645309	Kirkby in Ashfield	53.0998	-1.2438	0	PPL	27
2642763	Melton Mowbray	52.7659	-0.8869	0	PPL	27
2633912	Willenhall	52.5851	-2.0593	0	PPL	27
2633553	Workington	54.6425	-3.5441	0	PPL	27
3042237	Douglas	54.1500	-4.4833	1	PPLC	26
2655583	Bishop Auckland	54.6555	-1.6771	0	PPL	26
2652464	Congleton	53.1631	-2.2125	0	PPL	26
2649301	Flint	53.2449	-3.1323	0	PPLA3	26
2643198	Maghull	53.5162	-2.9412	0	PPL	26
2634387	Westhoughton	53.5490	-2.5246	0	PPL	26
2654927	Bramhall	53.3580	-2.1654	0	PPL	25
2649650	Farnworth	53.5500	-2.4000	0	PPL	25
2649312	Fleetwood	53.9253	-3.0109	0	PPL	25
2647303	Hawarden	53.1848	-3.0258	0	PPL	25
2641555	Newton Aycliffe	54.6184	-1.5719	0	PPL	25
2639436	Rhosllanerchrugog	53.0097	-3.0581	0	PPL	25
2639409	Rhyl	53.3193	-3.4923	0	PPL	25
2636995	Staveley	53.2667	-1.3500	0	PPL	25
2648356	Golborne	53.4769	-2.5965	0	PPL	24
2646862	Hindley	53.5333	-2.5833	0	PPL	24
2641544	Newton Mearns	55.7733	-4.3334	0	PPL	24
2640908	Ormskirk	53.5669	-2.8818	0	PPL	24
2638977	Rugeley	52.7593	-1.9369	0	PPL	24
2638235	Selby	53.7833	-1.0667	0	PPL	24
2634617	Wednesbury	52.5514	-2.0236	0	PPL	24
2634096	Whitehaven	54.5490	-3.5841	0	PPL	24
2655942	Belper	53.0233	-1.4812	0	PPL	23
2653353	Chapeltown	53.4651	-1.4722	0	PPL	23
2650962	Droylsden	53.4800	-2.1454	0	PPL	23
2649198	Formby	53.5584	-3.0700	0	PPLA3	23
2648273	Gosforth	55.0000	-1.6167	0	PPL	23
2647227	Heanor	53.0137	-1.3538	0	PPL	23
2643776	Lofthouse	53.7295	-1.4970	0	PPL	23
2641134	Oadby	52.6062	-1.0835	0	PPL	23
2634103	Whitefield	53.5500	-2.3000	0	PPL	23
2657508	Alfreton	53.0977	-1.3838	0	PPL	22
2650346	Retford	53.3221	-0.9432	0	PPL	22
2644386	Litherland	53.4699	-2.9981	0	PPL	22
2639586	Rawtenstall	53.7008	-2.2844	0	PPL	22
2639015	Royton	53.5651	-2.1227	0	PPL	22
2638302	Seaham	54.8390	-1.3458	0	PPL	22
2637106	Stalybridge	53.4841	-2.0591	0	PPL	22
2636005	Thornaby-on-Tees	54.5333	-1.3000	0	PPL	22
2634573	Wellington	52.7000	-2.5167	0	PPLA3	22
8224783	Stanley	54.8680	-1.6985	0	PPL	21
2654141	Buxton	53.2574	-1.9098	0	PPL	21
2650967	Dronfield	53.3022	-1.4751	0	PPL	21
2647784	Guiseley	53.8756	-1.7123	0	PPL	21
2641546	Newton-le-Willows	53.4500	-2.6000	0	PPL	21
2640869	Ossett	53.6798	-1.5801	0	PPL	21
2639325	Ripley	53.0333	-1.4000	0	PPL	21
6691219	Failsworth	53.5048	-2.1657	0	PPL	20
2656847	Atherton	53.5237	-2.4935	0	PPL	20
2655642	Bingley	53.8486	-1.8386	0	PPL	20
2654490	Brownhills	52.6333	-1.9333	0	PPL	20
2652544	Colne	53.8571	-2.1685	0	PPL	20
2648945	Gainsborough	53.3833	-0.7667	0	PPL	20
2648319	Goole	53.7032	-0.8773	0	PPLA3	20
2645420	Kingswinford	52.4975	-2.1689	0	PPL	20
2637104	Stamford	52.6500	-0.4833	0	PPL	20
2636373	Swinton	53.5000	-2.3500	0	PPL	20
6693007	Earl Shilton	52.5768	-1.3154	0	PPL	19
2657658	Adwick le Street	53.5708	-1.1845	0	PPL	19
2654532	Brough	53.7286	-0.5722	0	PPL	19
2651241	Dinnington	53.3667	-1.2000	0	PPL	19
2650815	Dukinfield	53.4750	-2.0881	0	PPL	19
2647985	Great Wyrley	52.6628	-2.0111	0	PPL	19
2646558	Horsforth	53.8426	-1.6375	0	PPL	19
2646042	Irlam	53.4425	-2.4232	0	PPL	19
2644684	Leek	53.1043	-2.0221	0	PPL	19
2639958	Poulton-le-Fylde	53.8333	-2.9833	0	PPL	19
2633415	Yarm	54.5036	-1.3579	0	PPLA3	19
6695247	Chapel Allerton	53.8290	-1.5383	0	PPL	18
2656397	Bangor	53.2275	-4.1294	0	PPL	18
2654450	Brymbo	53.0667	-3.0667	0	PPLA3	18
2650309	Eastwood	53.0000	-1.3000	0	PPL	18
2648988	Fulwood	53.3500	-1.5500	0	PPL	18
2647209	Hebburn	54.9730	-1.5155	0	PPL	18
2646542	Horwich	53.6013	-2.5497	0	PPL	18
2643096	Mansfield Woodhouse	53.1649	-1.1938	0	PPL	18
2642999	Marple	53.3945	-2.0629	0	PPL	18
2642423	Mirfield	53.6734	-1.6964	0	PPLA3	18
2640861	Oswestry	52.8620	-3.0550	0	PPLA3	18
2639926	Prestatyn	53.3375	-3.4078	0	PPL	18
2639588	Rawmarsh	53.4606	-1.3444	0	PPL	18
2637435	South Elmsall	53.5971	-1.2803	0	PPLA3	18
2657812	Abergele	53.2844	-3.5822	0	PPL	17
2655708	Biddulph	53.1172	-2.1758	0	PPL	17
2651558	Dalserf	55.7333	-3.9167	0	PPL	17
2647265	Haydock	53.4672	-2.6817	0	PPL	17
2647001	Heysham	54.0437	-2.8932	0	PPL	17
2643144	Maltby	53.4167	-1.2000	0	PPLA3	17
2642204	Moreton	53.4000	-3.1167	0	PPL	17
2642096	Mountsorrel	52.7167	-1.1500	0	PPL	17
2641892	Nantwich	53.0688	-2.5205	0	PPL	17
2641612	New Mills	53.3659	-1.9999	0	PPL	17
2639668	Ramsbottom	53.6479	-2.3168	0	PPL	17
2638600	Sandbach	53.1452	-2.3625	0	PPL	17
2637659	Sleaford	52.9983	-0.4094	0	PPL	17
2637235	Spennymoor	54.6988	-1.6023	0	PPL	17
2635997	Thorne	53.6112	-0.9631	0	PPL	17
2635269	Tynemouth	55.0179	-1.4256	0	PPL	17
2634672	Wath upon Dearne	53.5029	-1.3458	0	PPL	17
6691766	Longsight	53.4580	-2.2010	0	PPLX	16
2657528	Aldridge	52.6055	-1.9171	0	PPL	16
2656196	Basford	52.9667	-1.1833	0	PPL	16
2656039	Bedlington	55.1306	-1.5932	0	PPL	16
2647785	Guisborough	54.5348	-1.0561	0	PPLA3	16
2645541	Kilwinning	55.6533	-4.7067	0	PPL	16
2643553	Louth	53.3666	-0.0044	0	PPL	16
2641435	Northallerton	54.3390	-1.4324	0	PPLA2	16
2639323	Ripon	54.1358	-1.5283	0	PPL	16
2638894	Ryton	52.6167	-2.3500	0	PPLA3	16
2634155	Whickham	54.9456	-1.6764	0	PPL	16
11863036	Sinfin	52.8816	-1.4868	0	PPL	15
6696772	Darras Hall	55.0356	-1.7643	0	PPLX	15
6640028	Hale	53.3783	-2.3327	0	PPL	15
2656627	Baildon	53.8471	-1.7879	0	PPLA3	15
2656070	Bebington	53.3500	-3.0167	0	PPL	15
2654814	Bredbury	53.4167	-2.1167	0	PPL	15
2652857	Cleveleys	53.8775	-3.0399	0	PPL	15
2652458	Conisbrough	53.4819	-1.2321	0	PPL	15
2651497	Darton	53.5870	-1.5268	0	PPL	15
2650110	Elland	53.6851	-1.8388	0	PPL	15
2647363	Haslingden	53.7033	-2.3238	0	PPL	15
2647246	Hazel Grove	53.3833	-2.1167	0	PPL	15
2646471	Hoyland Nether	53.5000	-1.4500	0	PPL	15
2645347	Kippax	53.7669	-1.3710	0	PPL	15
2644853	Larkhall	55.7333	-3.9667	0	PPL	15
2644120	Llandudno	53.3250	-3.8315	0	PPLA3	15
2642683	Mexborough	53.4939	-1.2924	0	PPL	15
2641795	Neston	53.2833	-3.0500	0	PPLA3	15
2640416	Penrith	54.6658	-2.7576	0	PPL	15
2633681	Wombwell	53.5219	-1.3970	0	PPL	15
