id	name	lat	lon	capital	code	pop
1502822	Kolyvan’	55.3053	82.7391	0	PPL	10
1501803	Krivodanovka	55.0881	82.6551	0	PPL	9
1494111	Prokudskoye	55.0089	82.4574	0	PPL	6
1501573	Kudryashovskiy	55.0974	82.7742	0	PPL	3
1489474	Tolmachëvo	54.9824	82.7363	0	PPL	3
1541623	Sadovyy	55.1361	82.9659	0	PPL	2
