id	name	lat	lon	capital	code	pop
6534258	Santena	44.9462	7.7730	0	PPLA3	10
3165142	Trofarello	44.9824	7.7469	0	PPLA3	10
3180850	Canelli	44.7208	8.2928	0	PPLA3	8
3172253	Nizza Monferrato	44.7742	8.3578	0	PPLA3	8
6534250	Pino Torinese	45.0395	7.7771	0	PPLA3	6
3170408	Poirino	44.9205	7.8446	0	PPLA3	6
3181111	Cambiano	44.9711	7.7745	0	PPLA3	5
3166407	Sommariva del Bosco	44.7726	7.7818	0	PPLA3	5
3180898	Canale	44.7953	7.9937	0	PPLA3	4
3168440	San Damiano d'Asti	44.8334	8.0635	0	PPLA3	4
3164128	Villastellone	44.9220	7.7436	0	PPLA3	4
3178899	Cherasco	44.6435	7.8582	0	PPLA3	3
3173120	Montà	44.8147	7.9548	0	PPLA3	3
3169256	Riva Presso Chieri	44.9834	7.8731	0	PPLA3	3
3164183	Villanova d'Asti	44.9430	7.9367	0	PPLA3	3
8948980	Roreto	44.6693	7.8342	0	PPL	2
8948958	Bandito	44.7228	7.8240	0	PPL	2
8948903	Mussotto	44.7177	8.0340	0	PPL	2
6535846	Caramagna Piemonte	44.7822	7.7394	0	PPLA3	2
6534388	Isola d'Asti	44.8332	8.1802	0	PPLA3	2
6534387	Incisa Scapaccino	44.8081	8.3758	0	PPLA3	2
3179755	Castagnole delle Lanze	44.7499	8.1497	0	PPLA3	2
3179518	Castelnuovo Don Bosco	45.0408	7.9639	0	PPLA3	2
3177123	Felizzano	44.8993	8.4358	0	PPLA3	2
3173179	Moncalvo	45.0506	8.2628	0	PPLA3	2
3171351	Pecetto	45.0176	7.7511	0	PPLA3	2
3168358	Sanfrè	44.7518	7.8029	0	PPLA3	2
3167352	Santa Vittoria d'Alba	44.6986	7.9373	0	PPLA3	2
3167249	Santo Stefano Belbo	44.7102	8.2327	0	PPLA3	2
3166406	Sommariva Perno	44.7456	7.9006	0	PPLA3	2
3164243	Villafranca d'Asti	44.9154	8.0266	0	PPLA3	2
9036370	Neive-Borgonovo	44.7240	8.1178	0	PPLA3	1
8949375	Favari-Avatanei	44.9124	7.7995	0	PPL	1
8949348	Vaccheria	44.7270	8.0429	0	PPL	1
8949295	Marocchi	44.9420	7.8189	0	PPL	1
8949287	Borgo	44.7089	7.9622	0	PPL	1
8949279	Villa	44.7461	7.9007	0	PPLA3	1
8949275	Ricca	44.6613	8.0453	0	PPL	1
8949271	Sant'Antonio	44.7589	8.0700	0	PPL	1
8949210	Ghiare-Madonna	44.8077	8.3740	0	PPLA3	1
8949116	Cinzano	44.6931	7.9210	0	PPL	1
6535857	Corneliano d'Alba	44.7361	7.9572	0	PPLA3	1
6535854	Ceresole Alba	44.7997	7.8224	0	PPLA3	1
6535853	Grinzane Cavour	44.6533	7.9950	0	PPLA3	1
6535499	Buttigliera d'Asti	45.0217	7.9510	0	PPLA3	1
6535479	Priocca	44.7862	8.0642	0	PPLA3	1
6534853	Vezza d'Alba	44.7627	8.0079	0	PPLA3	1
6534378	Agliano Terme	44.7903	8.2504	0	PPLA3	1
6534364	Monticello d'Alba	44.7189	7.9426	0	PPLA3	1
6534330	Mombercelli	44.8178	8.2947	0	PPLA3	1
6534301	Roddi	44.6796	7.9754	0	PPLA3	1
3183081	Andezeno	45.0338	7.8661	0	PPLA3	1
3182461	Baldissero Torinese	45.0684	7.8127	0	PPLA3	1
3181997	Bistagno	44.6606	8.3716	0	PPLA3	1
3179663	Castell'Alfero	44.9851	8.2231	0	PPLA3	1
3179591	Castello di Annone	44.8794	8.3170	0	PPLA3	1
3179001	Cervere	44.6343	7.7888	0	PPLA3	1
3177881	Costigliole d'Asti	44.7852	8.1840	0	PPLA3	1
3176505	Fubine	44.9631	8.4281	0	PPLA3	1
3175184	La Morra	44.6379	7.9308	0	PPLA3	1
3172974	Montechiaro d'Asti	45.0070	8.1129	0	PPLA3	1
3172892	Montegrosso	44.8207	8.2375	0	PPLA3	1
3172375	Narzole	44.5944	7.8677	0	PPLA3	1
3171117	Pessione	44.9650	7.8411	0	PPL	1
3170955	Piano-Molini d'Isola	44.8319	8.1807	0	PPLA3	1
3170679	Piobesi d'Alba	44.7344	7.9794	0	PPLA3	1
3169688	Quattordio	44.8988	8.4049	0	PPLA3	1
3164914	Valfenera	44.9017	7.9643	0	PPLA3	1
9036165	Villa-Borgo	44.6987	7.9349	0	PPLA3	0
8949562	Agliano	44.7916	8.2512	0	PPLA3	0
6535861	Govone	44.8045	8.0940	0	PPLA3	0
6535849	Castellinaldo	44.7748	8.0297	0	PPLA3	0
6535811	Marentino	45.0537	7.8761	0	PPLA3	0
6535519	Rocchetta Tanaro	44.8586	8.3456	0	PPLA3	0
6535515	Portacomaro	44.9567	8.2580	0	PPLA3	0
6535508	Grana Monferrato	44.9984	8.2994	0	PPLA3	0
6535505	Cerro Tanaro	44.8734	8.3587	0	PPLA3	0
6535501	Castelnuovo Belbo	44.8011	8.4124	0	PPLA3	0
6535464	Guarene	44.7400	8.0351	0	PPLA3	0
6534882	Masio	44.8697	8.4077	0	PPLA3	0
6534858	San Paolo Solbrito	44.9507	7.9707	0	PPLA3	0
6534848	Pocapaglia	44.7152	7.8829	0	PPLA3	0
6534341	Refrancore	44.9363	8.3408	0	PPLA3	0
6534332	Monastero Bormida	44.6485	8.3266	0	PPLA3	0
6534326	Ferrere	44.8760	7.9942	0	PPLA3	0
6534303	Rodello	44.6285	8.0568	0	PPLA3	0
6534289	Magliano Alfieri	44.7692	8.0701	0	PPLA3	0
3182846	Arignano	45.0397	7.9019	0	PPLA3	0
3182462	Baldichieri d'Asti	44.9059	8.0916	0	PPLA3	0
3181247	Calamandrana	44.7377	8.3373	0	PPLA3	0
3181182	Calliano	45.0080	8.2566	0	PPLA3	0
3179805	Casorzo	45.0217	8.3384	0	PPLA3	0
3179760	Castagnito	44.7547	8.0320	0	PPLA3	0
3179754	Castagnole Monferrato	44.9586	8.3051	0	PPLA3	0
3178632	Cisterna d'Asti	44.8252	8.0008	0	PPLA3	0
3178526	Cocconato	45.0864	8.0402	0	PPLA3	0
3177596	Diano d'Alba	44.6529	8.0270	0	PPLA3	0
3174086	Mango	44.6881	8.1492	0	PPLA3	0
3172850	Montemagno	44.9830	8.3253	0	PPLA3	0
3172443	Murisengo	45.0817	8.1355	0	PPLA3	0
3171367	Pavarolo	45.0667	7.8394	0	PPLA3	0
3169951	Pralormo	44.8598	7.9044	0	PPLA3	0
3165564	Tonco	45.0234	8.1894	0	PPLA3	0
3164356	Vignale Monferrato	45.0100	8.3970	0	PPLA3	0
