id	name	lat	lon	capital	code	pop
5336667	Chowchilla	37.1230	-120.2602	0	PPL	18
5372190	Mendota	36.7536	-120.3816	0	PPL	11
5348299	Firebaugh	36.8588	-120.4560	0	PPL	8
5343728	Dos Palos	36.9861	-120.6266	0	PPL	5
5397374	South Dos Palos	36.9644	-120.6532	0	PPL	1
