id	name	lat	lon	capital	code	pop
2763423	Traun	48.2209	14.2383	0	PPL	11
2780048	Enns	48.2135	14.4761	0	PPL	9
2766365	Sankt Valentin	48.1667	14.5167	0	PPL	9
2771962	Marchtrenk	48.1902	14.1091	0	PPLA3	8
2777038	Haid	48.2048	14.2511	0	PPL	7
2778966	Gallneukirchen	48.3536	14.4160	0	PPLA3	6
2773538	Kremsmünster	48.0529	14.1292	0	PPL	6
2770750	Neuhofen an der Krems	48.1387	14.2276	0	PPL	6
2766525	Sankt Martin	48.2309	14.2678	0	PPL	6
2782054	Bad Hall	48.0383	14.2077	0	PPL	5
2777158	Haag	48.2706	14.2688	0	PPL	5
2776815	Hart	48.2653	14.2569	0	PPL	5
2770634	Neuzeug	48.0500	14.3333	0	PPL	5
2769105	Perg	48.2500	14.6333	0	PPLA2	5
2772635	Leonding	48.2796	14.2533	0	PPLA3	4
2765080	Sierning	48.0434	14.3094	0	PPL	4
2761999	Walding	48.3521	14.1576	0	PPLA3	4
11704362	Langholzfeld	48.2430	14.2477	0	PPLX	3
2782302	Asten	48.2194	14.4178	0	PPL	3
2780836	Doppl	48.2481	14.2542	0	PPL	3
2780043	Ennsdorf	48.2118	14.5029	0	PPLA3	3
2777015	Haidershofen	48.0758	14.4613	0	PPLA3	3
2771867	Sankt Florian	48.2057	14.3784	0	PPL	3
2769494	Oedt	48.2133	14.2101	0	PPL	3
2769342	Ottensheim	48.3325	14.1743	0	PPLA3	3
2766736	Sankt Dionysen	48.2244	14.2548	0	PPL	3
2766701	Sankt Georgen an der Gusen	48.2718	14.4495	0	PPL	3
2765347	Schwertberg	48.2734	14.5847	0	PPLA3	3
2765196	Seitenstetten Markt	48.0333	14.6500	0	PPL	3
11694350	Wolfern	48.0828	14.3720	0	PPLA3	2
2781804	Biberbach	48.0301	14.7080	0	PPLA3	2
2779944	Ernsthofen	48.1292	14.4806	0	PPL	2
2779529	Fisching	48.2230	14.4277	0	PPL	2
2779280	Freindorf	48.2257	14.2951	0	PPL	2
2778843	Garsten	48.0224	14.4075	0	PPLA3	2
2777164	Haag	48.1136	14.5675	0	PPLA3	2
2775497	Hörsching	48.2263	14.1779	0	PPLA3	2
2774550	Kematen an der Ybbs	48.0254	14.7647	0	PPLA3	2
2769225	Pasching	48.2593	14.2037	0	PPL	2
2768386	Pregarten	48.3549	14.5322	0	PPLA3	2
2768275	Puchenau	48.3121	14.2361	0	PPL	2
2766435	Sankt Peter in der Au Markt	48.0440	14.6218	0	PPL	2
2766189	Schafwiesen	48.1719	14.0707	0	PPL	2
2764354	Steyregg	48.2851	14.3699	0	PPL	2
2761945	Wallsee	48.1667	14.7167	0	PPL	2
2761558	Weistrach	48.0500	14.5833	0	PPLA3	2
2760915	Wolfsbach	48.0789	14.6703	0	PPLA3	2
11903843	Neubau	48.2190	14.1930	0	PPL	1
11903654	Rohr im Kremstal	48.0686	14.1931	0	PPL	1
11903606	Ufer	48.2484	14.4998	0	PPL	1
11862794	Bergern	48.1675	14.1115	0	PPL	1
11609957	Nöstlbach	48.1666	14.2461	0	PPL	1
6951114	Bad Zell	48.3491	14.6694	0	PPL	1
3321863	Berg	48.2928	14.2478	0	PPL	1
3321857	Gaumberg	48.2809	14.2693	0	PPLX	1
2783047	Abwinden	48.2590	14.4262	0	PPL	1
2782980	Adlwang	47.9924	14.2174	0	PPLA3	1
2782806	Alkoven	48.2875	14.1075	0	PPLA3	1
2782700	Altenberg bei Linz	48.3728	14.3503	0	PPLA3	1
2782634	Altlichtenberg	48.3600	14.2584	0	PPL	1
2782480	Ansfelden	48.2097	14.2900	0	PPL	1
2782370	Aschach an der Steyr	48.0131	14.3354	0	PPL	1
2782347	Aschbach Markt	48.0723	14.7539	0	PPL	1
2782241	Au an der Traun	48.1802	14.1125	0	PPL	1
2782233	Audorf	48.2181	14.2793	0	PPL	1
2781861	Bergham	48.2818	14.2314	0	PPL	1
2780972	Dietach	48.0902	14.4165	0	PPL	1
2780970	Dietachdorf	48.0836	14.4287	0	PPL	1
2778133	Gramastetten	48.3803	14.1919	0	PPLA3	1
2777210	Gutau	48.4172	14.6128	0	PPLA3	1
2777066	Hagenberg im Mühlkreis	48.3679	14.5169	0	PPL	1
2776792	Hartheim	48.2808	14.1143	0	PPL	1
2776531	Hellmonsödt	48.4333	14.3000	0	PPLA3	1
2775818	Hofkirchen im Traunkreis	48.1431	14.3778	0	PPL	1
2774621	Katsdorf	48.3179	14.4743	0	PPL	1
2774548	Kematen an der Krems	48.1115	14.1939	0	PPL	1
2773541	Kremsdorf	48.2003	14.2625	0	PPL	1
2773379	Kronstorf	48.1432	14.4631	0	PPL	1
2773004	Langenstein	48.2520	14.4765	0	PPL	1
2772213	Luftenberg an der Donau	48.2746	14.4130	0	PPL	1
2771377	Mittertreffling	48.3387	14.3651	0	PPL	1
2771023	Münzbach	48.2674	14.7101	0	PPL	1
2770967	Naarn im Machlande	48.2255	14.6084	0	PPL	1
2770722	Neumarkt im Mühlkreis	48.4282	14.4844	0	PPL	1
2770548	Niederneukirchen	48.1609	14.3397	0	PPL	1
2769129	Penz	48.0333	14.4833	0	PPL	1
2768664	Plesching	48.3210	14.3380	0	PPL	1
2768265	Pucking	48.1889	14.1882	0	PPL	1
2768089	Raffelstetten	48.2376	14.4027	0	PPL	1
2767468	Ried im Traunkreis	48.0258	14.0745	0	PPL	1
2767466	Ried in der Riedmark	48.2711	14.5280	0	PPLA3	1
2767214	Rosenau am Sonntagberg	48.0078	14.7393	0	PPL	1
2766983	Rufling	48.2784	14.2167	0	PPL	1
2766805	Sammersdorf	48.1809	14.1667	0	PPL	1
2766542	Sankt Marien	48.1480	14.2776	0	PPL	1
2766462	Sankt Pantaleon	48.2106	14.5680	0	PPL	1
2766372	Sankt Ulrich bei Steyr	48.0212	14.4368	0	PPLA3	1
2765689	Schönering	48.2984	14.1610	0	PPL	1
2765376	Schweinbach	48.3403	14.4225	0	PPL	1
2764177	Strassham	48.2835	14.1452	0	PPL	1
2763477	Tragwein	48.3331	14.6224	0	PPL	1
2762097	Wagram	48.2383	14.2300	0	PPL	1
2761989	Waldneukirchen	47.9985	14.2588	0	PPLA3	1
2761877	Wartberg ob der Aist	48.3479	14.5080	0	PPLA3	1
2761572	Weisskirchen an der Traun	48.1620	14.1240	0	PPLA3	1
2782830	Alberndorf in der Riedmark	48.4061	14.4144	0	PPLA3	0
2782784	Allhaming	48.1525	14.1702	0	PPLA3	0
2780250	Eidenberg	48.3944	14.2331	0	PPLA3	0
2780057	Engerwitzdorf	48.3451	14.4420	0	PPLA3	0
2778376	Goldwörth	48.3266	14.1011	0	PPLA3	0
2776467	Herzogsdorf	48.4301	14.1128	0	PPLA3	0
2775571	Holzhausen	48.2230	14.0968	0	PPLA3	0
2774369	Kirchschlag bei Linz	48.4115	14.2766	0	PPLA3	0
2768935	Pfarrkirchen bei Bad Hall	48.0305	14.1991	0	PPLA3	0
2767773	Reichenau im Mühlkreis	48.4570	14.3488	0	PPLA3	0
2764138	Strengberg	48.1469	14.6515	0	PPLA3	0
2761116	Windhaag bei Perg	48.2858	14.6809	0	PPLA3	0
