id	name	lat	lon	capital	code	pop
5276609	Two Rivers	44.1539	-87.5692	0	PPL	11
5261340	Luxemburg	44.5386	-87.7040	0	PPL	2
5258490	Kewaunee	44.4583	-87.5031	0	PPLA2	2
5250470	Denmark	44.3478	-87.8273	0	PPL	2
5263207	Mishicot	44.2392	-87.6412	0	PPL	1
5249423	Cooperstown	44.3128	-87.7745	0	PPL	1
5248044	Cato	44.1428	-87.8612	0	PPL	1
