id	name	lat	lon	capital	code	pop
4246659	Paris	39.6112	-87.6961	0	PPLA2	8
4262311	North Terre Haute	39.5278	-87.3603	0	PPL	4
4255937	Clinton	39.6570	-87.3981	0	PPL	4
4243951	Marshall	39.3914	-87.6936	0	PPLA2	3
4266844	West Terre Haute	39.4650	-87.4500	0	PPL	2
4263850	Rockville	39.7625	-87.2292	0	PPLA2	2
4263848	Rockport	39.8809	-87.2789	0	PPL	2
4264592	Seelyville	39.4920	-87.2672	0	PPL	1
4257305	Fairview Park	39.6803	-87.4175	0	PPL	1
4235766	Chrisman	39.8036	-87.6736	0	PPL	1
