id	name	lat	lon	capital	code	pop
660294	Elimäki	60.7167	26.4667	0	PPLA3	8
656807	Iitti	60.8949	26.3387	0	PPLA3	7
651514	Koria	60.8461	26.6075	0	PPL	3
648965	Lapinjärvi	60.6244	26.1972	0	PPLA3	2
660974	Artjärvi	60.7454	26.0708	0	PPLA3	1
