id	name	lat	lon	capital	code	pop
728075	Popovo	43.3500	26.2333	0	PPL	16
728634	Omurtag	43.1000	26.4167	0	PPL	9
728631	Opaka	43.4500	26.1667	0	PPL	3
729530	Loznitsa	43.3667	26.6000	0	PPL	2
733657	Antonovo	43.1500	26.1667	0	PPL	1
