id	name	lat	lon	capital	code	pop
726546	Svilengrad	41.7667	26.2000	0	PPL	19
729466	Lyubimets	41.8333	26.0833	0	PPL	8
730837	Ivaylovgrad	41.5267	26.1249	0	PPL	3
734978	Néa Výssa	41.5845	26.5432	0	PPL	2
735938	Kastaniés	41.6455	26.4768	0	PPL	1
735852	Kavýli	41.5622	26.5147	0	PPL	1
735720	Kyprínos	41.5754	26.2291	0	PPL	1
734960	Neochóri	41.5113	26.4574	0	PPL	1
734389	Rízia	41.6249	26.4277	0	PPL	1
