id	name	lat	lon	capital	code	pop
315061	Ezine	39.7856	26.3408	0	PPLA2	15
322692	AyvacÄ±k	39.6011	26.4047	0	PPLA2	6
314529	Geyikli	39.8047	26.2075	0	PPLA3	3
320700	Bozcaada	39.8350	26.0697	0	PPLA2	2
321658	Behram	39.4934	26.3332	0	PPL	1
