id	name	lat	lon	capital	code	pop
2620167	Hobro	56.6431	9.7903	0	PPLA2	12
2612500	Støvring	56.8854	9.8384	0	PPLA2	9
2624602	Aars	56.8040	9.5144	0	PPLA2	8
2622310	Farsø	56.7728	9.3392	0	PPL	3
2624864	Ålestrup	56.6947	9.4934	0	PPL	2
2616412	Nørager	56.7064	9.6300	0	PPL	1
