id	name	lat	lon	capital	code	pop
3032668	Biguglia	42.6269	9.4202	0	PPL	5
3031537	Borgo	42.5549	9.4264	0	PPL	5
3016890	Furiani	42.6585	9.4145	0	PPL	4
2987202	Pietranera	42.7234	9.4562	0	PPL	2
2976186	San-Martino-di-Lota	42.7316	9.4397	0	PPL	2
2976140	Santa-Maria-di-Lota	42.7478	9.4320	0	PPL	2
3030561	Brando	42.7667	9.4500	0	PPL	1
2989625	Oletta	42.6299	9.3543	0	PPL	1
2980115	Saint-Florent	42.6815	9.3040	0	PPL	1
2974452	Sisco	42.8000	9.4333	0	PPL	1
