id	name	lat	lon	capital	code	pop
2985947	Porto-Vecchio	41.5910	9.2795	0	PPL	11
3016133	Ghisonaccia	42.0158	9.4051	0	PPL	3
2985196	Prunelli-di-Fiumorbo	42.0105	9.3247	0	PPL	2
2970033	Ventiseri	41.9436	9.3334	0	PPL	2
2976014	Sari-Solenzara	41.8352	9.3747	0	PPL	1
2967125	Zonza	41.7493	9.1708	0	PPL	1
