id	name	lat	lon	capital	code	pop
2142316	Yeppoon	-23.1268	150.7441	0	PPL	7
11523849	Yeppoon city centre	-23.1295	150.7364	0	PPLX	6
8349424	Lammermoor	-23.1608	150.7608	0	PPLX	2
8348622	Taranganba	-23.1443	150.7514	0	PPLX	2
8599683	Mulambin	-23.1876	150.7893	0	PPL	1
8348969	Cooee Bay	-23.1443	150.7611	0	PPLX	1
