id	name	lat	lon	capital	code	pop
2156034	Muswellbrook	-32.2612	150.8901	0	PPL	12
2150096	Scone	-32.0501	150.8689	0	PPL	5
11704281	Singleton Heights	-32.5416	151.1609	0	PPL	4
2178364	Aberdeen	-32.1659	150.8900	0	PPL	2
2169056	Denman	-32.3879	150.6893	0	PPL	1
