id	name	lat	lon	capital	code	pop
3662762	Porto Velho	-8.7619	-63.9039	0	PPLA	548
3925033	Ji Paraná	-10.8853	-61.9517	0	PPL	107
3906466	Riberalta	-11.0103	-66.0526	0	PPL	99
3665199	Ariquemes	-9.9133	-63.0408	0	PPL	58
3915350	Guayaramerín	-10.8258	-65.3581	0	PPL	36
3925075	Guajará Mirim	-10.7836	-65.3355	0	PPL	34
3664078	Humaitá	-7.5165	-63.0311	0	PPL	31
3925040	Jaru	-10.4389	-62.4664	0	PPL	28
3924948	Ouro Preto do Oeste	-10.7481	-62.2158	0	PPL	26
