id	name	lat	lon	capital	code	pop
4676798	Brownwood	31.7093	-98.9912	0	PPLA2	19
4682698	Comanche	31.8974	-98.6037	0	PPLA2	4
4687635	Early	31.7421	-98.9456	0	PPL	2
4704395	Lake Brownwood	31.8357	-99.0078	0	PPL	1
4693906	Goldthwaite	31.4499	-98.5709	0	PPLA2	1
4672192	Bangs	31.7171	-99.1325	0	PPL	1
