id	name	lat	lon	capital	code	pop
4179193	Adel	31.1373	-83.4241	0	PPLA2	5
4211839	Nashville	31.2074	-83.2502	0	PPLA2	4
4217712	Quitman	30.7849	-83.5599	0	PPLA2	3
4204775	Lakeland	31.0410	-83.0751	0	PPLA2	3
4223871	Sparks	31.1669	-83.4374	0	PPL	2
4198750	Hahira	30.9913	-83.3727	0	PPL	2
4231065	Willacoochee	31.3408	-83.0460	0	PPL	1
4218427	Remerton	30.8441	-83.3104	0	PPL	1
4217984	Ray City	31.0746	-83.1993	0	PPL	1
4214294	Omega	31.3410	-83.5935	0	PPL	1
