id	name	lat	lon	capital	code	pop
756048	WÄ™gorzewo	54.2157	21.7372	0	PPLA3	11
768116	Korsze	54.1700	21.1392	0	PPL	4
463356	Zheleznodorozhnyy	54.3601	21.3060	0	PPL	2
776393	Barciany	54.2199	21.3535	0	PPL	1
758467	Srokowo	54.2142	21.5228	0	PPL	1
