id	name	lat	lon	capital	code	pop
760166	Ruciane-Nida	53.6416	21.5396	0	PPLA3	4
765642	Łyse	53.3644	21.5649	0	PPLA3	2
764204	Myszyniec	53.3805	21.3496	0	PPLA3	2
757610	Świętajno	53.5669	21.2155	0	PPL	2
760203	Rozogi	53.4855	21.3622	0	PPL	1
