id	name	lat	lon	capital	code	pop
788792	Lapovo	44.1842	21.0973	0	PPLA3	7
790983	Duboka	44.5222	21.7603	0	PPLL	1
786615	Radenka	44.5834	21.7647	0	PPL	1
785941	Å evica	44.5088	21.7230	0	PPLL	1
784820	Turija	44.5227	21.6395	0	PPL	1
