id	name	lat	lon	capital	code	pop
736151	Grevená	40.0845	21.4274	0	PPLA2	10
734315	Siátista	40.2619	21.5442	0	PPLA3	5
736208	Galatiní	40.3197	21.5515	0	PPL	2
736309	Erátyra	40.3425	21.5133	0	PPL	1
735679	Koíla	40.3306	21.7910	0	PPL	1
733986	Tsotíli	40.2615	21.3253	0	PPL	1
