id	name	lat	lon	capital	code	pop
12450868	Tuohula	37.2423	79.6928	0	PPLA4	18
12450870	Wu'erqi	37.3202	79.5593	0	PPLA4	16
12450872	Yingye'er	37.3731	79.7775	0	PPLA4	11
12450863	Kawake	37.6598	80.0803	0	PPLA4	10
12450720	Ying'airike	37.2547	79.9001	0	PPLA4	10
12450719	Segezikule	37.4656	79.9101	0	PPLA4	9
