id	name	lat	lon	capital	code	pop
690288	Velyka Oleksandrivka	47.3189	33.2906	0	PPL	6
688689	Vysokopillya	47.4893	33.5306	0	PPL	4
713208	Arkhanhelske	47.4333	33.4051	0	PPL	1
712659	Bila Krynytsya	47.3493	33.1972	0	PPL	1
703198	Lepetykha	47.3274	33.0502	0	PPL	1
