id	name	lat	lon	capital	code	pop
2966566	Ballyhaunis	53.7667	-8.7667	0	PPL	2
2966784	Ballaghaderreen	53.9013	-8.5751	0	PPL	1
2966492	Ballymote	54.0833	-8.5167	0	PPL	1
2965570	Castlerea	53.7726	-8.5031	0	PPL	1
2965518	Charlestown	53.9642	-8.7942	0	PPL	1
2964233	Foxford	53.9807	-9.1155	0	PPL	1
2963208	Kiltamagh	53.8500	-9.0000	0	PPL	1
2961299	Swinford	53.9394	-8.9435	0	PPL	1
2961182	Tobercurry	54.0500	-8.7333	0	PPL	1
