id	name	lat	lon	capital	code	pop
2262926	Silves	37.1892	-8.4382	0	PPLA2	10
2271968	Aljezur	37.3175	-8.8015	0	PPLA2	5
2266268	Monchique	37.3177	-8.5553	0	PPLA2	5
2265472	Odemira	37.5980	-8.6397	0	PPL	5
2263207	São Teotónio	37.5128	-8.7071	0	PPL	4
2261486	Zambujeira do Mar	37.5280	-8.7848	0	PPL	2
2271905	Almograve	37.6566	-8.7921	0	PPL	1
2270814	Boavista dos Pinheiros	37.5806	-8.6644	0	PPL	1
2266680	Marmelete	37.3101	-8.6681	0	PPL	1
2263298	São Luis	37.7156	-8.6647	0	PPL	1
