id	name	lat	lon	capital	code	pop
4204007	Kingsland	30.8000	-81.6898	0	PPL	16
4195600	Folkston	30.8310	-82.0113	0	PPLA2	5
4183305	Blackshear	31.3060	-82.2421	0	PPLA2	3
7260333	Kings Bay Base	30.7984	-81.5659	0	PPL	1
4231725	Woodbine	30.9640	-81.7242	0	PPLA2	1
4211775	Nahunta	31.2044	-81.9812	0	PPLA2	1
