id	name	lat	lon	capital	code	pop
3702269	Canoa	8.4386	-81.7793	0	PPL	3
10347339	Pueblo Nuevo	8.8807	-82.2241	0	PPLA3	1
3714101	Bisira	8.9008	-81.8636	0	PPLA2	1
3713077	Kankintú	8.8463	-81.8127	0	PPLA3	1
3712401	Chiriquí Grande	8.9494	-82.1171	0	PPLA2	1
3702332	Punta Peña	8.9166	-82.1849	0	PPLA3	1
3708747	Hato Chamí	8.4485	-81.7703	0	PPLA2	0
