id	name	lat	lon	capital	code	pop
4663494	Tullahoma	35.3620	-86.2094	0	PPL	19
4668336	Winchester	35.1859	-86.1122	0	PPLA2	8
4638782	Lynchburg	35.2831	-86.3742	0	PPLA2	6
4656589	Sewanee	35.2031	-85.9211	0	PPL	2
4621192	Estill Springs	35.2706	-86.1280	0	PPL	2
4617668	Decherd	35.2098	-86.0794	0	PPL	2
4608615	Brighton	35.0801	-86.4392	0	PPL	2
4642403	Monteagle	35.2401	-85.8397	0	PPL	1
4615851	Cowan	35.1645	-86.0105	0	PPL	1
4079916	New Market	34.9100	-86.4278	0	PPL	1
