id	name	lat	lon	capital	code	pop
4094163	Troy	31.8088	-85.9699	0	PPLA2	18
4828081	Elba	31.4146	-86.0677	0	PPLA2	3
4073985	Luverne	31.7166	-86.2639	0	PPLA2	2
4079423	New Brockton	31.3857	-85.9294	0	PPL	1
4052177	Brundidge	31.7202	-85.8161	0	PPL	1
