id	name	lat	lon	capital	code	pop
3429786	Puerto Esperanza	-26.0227	-54.6136	0	PPLA2	15
3427327	Colonia Wanda	-25.9734	-54.5630	0	PPL	15
3429764	Puerto Libertad	-25.9196	-54.5823	0	PPL	6
3437370	Puerto Mayor Otaño	-26.4000	-54.7000	0	PPL	4
3439159	Carlos Antonio López	-26.3985	-54.7569	0	PPL	1
