id	name	lat	lon	capital	code	pop
3434291	El Soberbio	-27.2966	-54.1981	0	PPLA2	19
3461659	Horizontina	-27.6258	-54.3078	0	PPL	14
3427537	Veinticinco de Mayo	-27.3780	-54.7450	0	PPL	11
3435344	Colonia Aurora	-27.4737	-54.5242	0	PPL	8
3436448	Alba Posse	-27.5694	-54.6838	0	PPLA2	6
