id	name	lat	lon	capital	code	pop
1692192	Quezon City	14.6488	121.0509	0	PPLA2	2761
1701668	Manila	14.6042	120.9822	1	PPLC	1600
1720151	Caloocan City	14.6495	120.9679	0	PPLA2	1500
1694781	Paranaque City	14.4816	121.0175	0	PPLA3	689
1684308	Taguig	14.5243	121.0792	0	PPLA3	644
7290466	Pasig City	14.5869	121.0614	0	PPLA2	617
1707174	Las Piñas	14.4506	120.9828	0	PPLA3	590
1730501	Antipolo	14.6258	121.1225	0	PPLA2	549
1720681	Calamba	14.2117	121.1653	0	PPLA	539
1703417	Makati City	14.5503	121.0327	0	PPLA2	510
1715430	Dasmariñas	14.3294	120.9367	0	PPLA3	441
1701966	Mandaluyong City	14.5832	121.0409	0	PPL	425
1694611	Pasay	14.5375	121.0014	0	PPL	416
1689395	San Jose del Monte	14.8139	121.0453	0	PPLA3	357
1729524	Bacoor	14.4590	120.9385	0	PPLA3	356
1721906	Cabanatuan City	15.4859	120.9665	0	PPL	327
1721281	Cabuyao	14.2726	121.1262	0	PPLA3	308
1725115	Biñan	14.3427	121.0807	0	PPLA3	300
1730737	Angeles City	15.1500	120.5833	0	PPL	299
1687687	Santol	15.1622	120.5675	0	PPL	298
1720840	Cainta	14.5786	121.1222	0	PPLA3	283
1728930	Baguio	16.4164	120.5931	0	PPLA	272
1688749	San Pedro	14.3595	121.0473	0	PPLA3	270
1690039	San Fernando	15.0343	120.6844	0	PPLA	251
1697846	Navotas	14.6667	120.9500	0	PPLA3	249
1726280	Batangas	13.7567	121.0584	0	PPLA2	237
1682598	Taytay	14.5588	121.1329	0	PPLA3	231
1705357	Lucena	13.9314	121.6172	0	PPLA2	228
1697175	Olongapo	14.8292	120.2828	0	PPLA3	221
1725094	Binangonan	14.4646	121.1929	0	PPLA3	219
1710914	Imus	14.4297	120.9367	0	PPLA3	216
1687894	Santa Rosa	14.3122	121.1114	0	PPLA3	216
1706090	Lipa City	13.9411	121.1631	0	PPL	212
1688830	San Pablo	14.0683	121.3256	0	PPL	207
1702540	Malolos	14.8443	120.8104	0	PPLA2	198
1704703	Mabalacat City	15.2230	120.5712	0	PPLA3	188
1699802	Meycauayan	14.7369	120.9608	0	PPLA3	184
1682812	Tarlac City	15.4802	120.5979	0	PPLA2	183
1706889	Legaspi	13.1412	123.7407	0	PPLA2	179
1698829	Naga	13.6192	123.1814	0	PPL	174
1716198	Dagupan	16.0431	120.3333	0	PPLA3	171
1712051	Guyong	14.8361	120.9784	0	PPL	155
1727995	Baliuag	14.9547	120.8969	0	PPLA3	135
1699296	Rodriguez	14.7601	121.1999	0	PPLA3	134
1689056	San Mateo	14.6982	121.1236	0	PPLA3	134
1722930	Bulaon	15.0826	120.6629	0	PPL	131
1688216	Santa Cruz	14.6000	120.9833	0	PPLX	126
1711982	Hagonoy	14.8341	120.7327	0	PPL	123
1689286	San Juan	14.6000	121.0333	0	PPLA3	121
1686547	Silang	14.2157	120.9714	0	PPLA3	119
1689510	San Jose	12.3528	121.0676	0	PPL	118
1717641	Cavite City	14.4837	120.8988	0	PPL	115
1710544	Iriga City	13.4324	123.4115	0	PPL	114
1682659	Tayabas	14.0259	121.5929	0	PPL	112
1688253	Santa Cruz	14.2814	121.4161	0	PPLA3	108
7090987	Bagong Silangan	14.7060	121.1080	0	PPL	106
1683013	Tanza	14.6753	120.9389	0	PPL	105
1691444	Roxas City	11.5853	122.7511	0	PPLA2	102
1692520	Pulong Santa Cruz	14.2732	121.0764	0	PPL	101
1680197	Urdaneta	15.9761	120.5711	0	PPLA3	101
1724489	Bocaue	14.7983	120.9261	0	PPLA3	98
1713014	General Trias	14.3869	120.8817	0	PPLA3	96
1705536	Los Baños	14.1702	121.2418	0	PPLA3	95
8534157	Banco Filipino Homes	14.4338	121.0223	0	PPLX	92
1720034	Calumpit	14.9164	120.7658	0	PPLA3	91
1709632	Kalibo (poblacion)	11.7061	122.3644	0	PPL	89
1701872	Mangaldan	16.0700	120.4025	0	PPLA3	88
1730713	Angono	14.5266	121.1536	0	PPLA3	87
1730225	Arayat	15.1505	120.7697	0	PPLA3	87
1684553	Tagaytay	14.0953	120.9335	0	PPL	85
1700868	Mariveles	14.4338	120.4857	0	PPLA3	84
1700917	Marilao	14.7578	120.9483	0	PPLA3	83
1690033	San Fernando	16.6159	120.3166	0	PPLA2	83
1713226	Gapan	15.3072	120.9464	0	PPLA3	79
1697497	Norzagaray	14.9109	121.0493	0	PPL	79
1696817	Paco	14.5833	120.9833	0	PPLX	79
1716287	Daet	14.1122	122.9553	0	PPLA2	78
1730413	Apalit	14.9533	120.7700	0	PPLA3	77
1693136	Polangui	13.2923	123.4855	0	PPLA3	77
1692565	Pulilan	14.9017	120.8492	0	PPLA3	77
1712531	Guiguinto	14.8333	120.8833	0	PPLA3	76
1709003	Kawit	14.4443	120.9016	0	PPLA3	73
1728523	Balanga	14.6761	120.5361	0	PPLA2	72
1718722	Capas	15.3312	120.5898	0	PPL	72
1692872	Port Area	14.5894	120.9670	0	PPLX	72
1723066	Bulacan	14.7928	120.8789	0	PPLA3	71
1693239	Plaridel	14.8872	120.8572	0	PPLA3	70
1706609	Libon	13.2997	123.4386	0	PPLA3	68
1704067	Magalang	15.2151	120.6596	0	PPLA3	68
1683340	Tanauan	14.0863	121.1497	0	PPLA3	68
1685577	Subic	14.8787	120.2319	0	PPLA3	67
1720561	Calapan	13.4117	121.1803	0	PPLA	66
1714766	Dinalupihan	14.8783	120.4522	0	PPLA3	66
1689832	San Ildefonso	15.0809	120.9410	0	PPLA3	65
1688954	San Miguel	15.1423	120.9757	0	PPL	65
1716995	Concepcion	15.3255	120.6572	0	PPLA3	64
1684016	Talavera	15.5883	120.9192	0	PPLA3	64
1698030	Nasugbu	14.0669	120.6318	0	PPLA3	62
1680704	Tunasan	14.3792	121.0525	0	PPL	61
1719274	Candelaria	13.9311	121.4233	0	PPLA3	60
1728584	Balagtas	14.8167	120.8667	0	PPLA3	59
1702096	Manaoag	16.0438	120.4861	0	PPLA3	59
1697376	Obando	14.7098	120.9362	0	PPLA3	59
1683319	Tanay	14.4968	121.2846	0	PPLA3	59
1687534	Santo Tomas	14.1079	121.1414	0	PPLA3	57
1685117	Tabaco	13.3586	123.7336	0	PPLA3	57
1706188	Lingayen	16.0218	120.2319	0	PPLA3	56
1718306	Carmona	14.3132	121.0576	0	PPLA3	55
1705440	Lubao	14.9405	120.6011	0	PPLA3	55
1698548	Naic	14.3181	120.7661	0	PPLA3	55
1706361	Limay	14.5619	120.5983	0	PPLA3	52
1694290	Patuto	14.1167	120.9667	0	PPL	52
1728336	Balayan	13.9371	120.7322	0	PPLA3	50
1721636	Cabiao	15.2488	120.8548	0	PPLA3	49
1699205	Morong	14.5185	121.2378	0	PPLA3	49
1725729	Bayombong	16.4812	121.1497	0	PPLA3	48
1695097	Paniqui	15.6689	120.5806	0	PPLA3	48
1725426	Upper Bicutan	14.4996	121.0507	0	PPL	47
1719329	Candaba	15.0956	120.8267	0	PPLA3	47
1700712	Masbate	12.3717	123.6249	0	PPLA3	47
1688398	Santa Ana	15.0955	120.7670	0	PPLA3	47
1966336	Bagong Pagasa	14.6627	121.0328	0	PPL	46
1697023	Orion	14.6206	120.5817	0	PPLA3	46
1724956	Binmaley	16.0323	120.2690	0	PPL	44
1697046	Orani	14.8006	120.5371	0	PPLA3	44
1687164	Sariaya	13.9624	121.5265	0	PPL	44
1699805	Mexico	15.0646	120.7198	0	PPLA3	43
1693618	Pinamalayan	13.0460	121.4621	0	PPLA3	43
1722267	Bustos	14.9581	120.9178	0	PPLA3	42
1730749	Angat	14.9285	121.0300	0	PPLA3	41
1710770	Indang	14.1953	120.8769	0	PPLA3	41
1707123	La Trinidad	16.4550	120.5875	0	PPLA3	41
1700753	Masantol	14.8960	120.7092	0	PPLA3	41
1694861	Paombong	14.8311	120.7892	0	PPLA3	41
1713004	Gerona	15.6065	120.5978	0	PPLA3	40
1702372	Mamatid	14.2349	121.1590	0	PPL	40
1696614	Pagbilao	13.9669	121.6984	0	PPL	40
1719683	Camiling	15.6866	120.4128	0	PPLA3	39
1710389	Jaen	15.3275	120.9192	0	PPLA3	39
1694914	Pantubig	14.9681	120.9547	0	PPL	39
1688795	San Pascual	13.8104	121.0220	0	PPLA3	39
1685146	Taal	13.8799	120.9231	0	PPLA3	39
1694826	Papaya	15.3202	120.8357	0	PPL	38
1691280	Sablayan	12.8346	120.7690	0	PPL	38
1720751	Calaca	13.9324	120.8133	0	PPLA3	37
1715169	Del Pilar	15.0360	120.6993	0	PPL	37
1699088	Muñoz	15.7161	120.9031	0	PPLA3	37
1697486	Noveleta	14.4292	120.8799	0	PPLA3	37
1725627	Bel Air	14.5594	121.0258	0	PPL	36
1724106	Bongabon	15.6321	121.1448	0	PPLA3	36
1720464	Calauan	14.1499	121.3152	0	PPLA3	36
1685875	Solano	16.5192	121.1812	0	PPLA3	36
8299649	Pandan	11.7448	122.1003	0	PPL	35
1732354	Abucay	14.7335	120.5336	0	PPLA3	35
1689498	San Jose	13.3500	123.5500	0	PPL	35
1731528	Aliaga	15.5000	120.8430	0	PPLA3	34
1695462	Pandi	14.8650	120.9572	0	PPLA3	34
1693870	Pila	14.2325	121.3648	0	PPLA3	34
1690321	San Antonio	14.9466	120.0867	0	PPLA3	34
1689171	San Leonardo	15.3630	120.9639	0	PPLA3	34
1682478	Teresa	14.5612	121.2195	0	PPLA3	34
1729613	Baclaran	14.5319	120.9942	0	PPL	33
1725991	Bauan	13.7917	121.0085	0	PPLA3	33
1725919	Bay	14.1837	121.2855	0	PPLA3	33
1711829	Hermosa	14.8314	120.5081	0	PPLA3	33
1702763	Malilipot	13.3188	123.7385	0	PPLA3	33
1689129	San Luis	15.0401	120.7883	0	PPLA3	33
1713018	General Tinio	15.3507	121.0477	0	PPLA3	32
1712488	Guimba	15.6605	120.7683	0	PPLA3	32
1700179	Mauban	14.1910	121.7309	0	PPL	32
1731686	Alaminos	14.0639	121.2465	0	PPLA3	31
1723166	Buhi	13.4322	123.5170	0	PPLA3	30
1718426	Cardona	14.4865	121.2275	0	PPLA3	30
1705367	Lucban	14.1136	121.5557	0	PPL	30
1705190	Lumbang	14.2973	121.4598	0	PPL	30
1693778	Pililla	14.4854	121.3062	0	PPLA3	30
1730171	Aringay	16.3940	120.3545	0	PPLA3	29
1729987	Atimonan	14.0027	121.9208	0	PPL	29
1702413	Malvar	14.0447	121.1586	0	PPLA3	29
1690664	Samal	14.7678	120.5431	0	PPLA3	29
1688425	San Simon	14.9996	120.7808	0	PPLA3	29
1731959	Agoo	16.0833	120.1000	0	PPL	28
1722433	Burgos	15.7289	120.5722	0	PPL	28
1710441	Itogon	16.3639	120.6769	0	PPLA3	28
1700665	Masinloc	15.5363	119.9502	0	PPLA3	28
1695583	Pandacaqui	15.1719	120.6546	0	PPL	28
1718078	Castillejos	14.9336	120.1979	0	PPLA3	27
1694075	Peñaranda	15.3512	121.0039	0	PPLA3	27
1720793	Calabanga	13.7068	123.2087	0	PPLA3	26
1717960	Catanauan	13.5926	122.3215	0	PPL	26
1711437	Iba	15.3276	119.9780	0	PPLA3	26
1696718	Paete	14.3647	121.4829	0	PPLA3	26
1691606	Rizal	15.7118	121.1061	0	PPLA3	26
1690313	San Antonio	15.3062	120.8560	0	PPLA3	26
1688232	Santa Cruz	15.7654	119.9092	0	PPL	26
8335226	Ayala Alabang	14.4060	121.0222	0	PPLX	25
1717008	Concepcion Ibaba	13.9231	121.4610	0	PPL	25
1707324	La Paz	15.4413	120.7286	0	PPLA3	25
1705572	Lopez	13.8840	122.2604	0	PPL	25
1698921	Nabua	13.4075	123.3724	0	PPLA3	25
1682537	Telabastagan	15.1185	120.6077	0	PPL	25
1729324	Baggabag B	16.5059	121.1901	0	PPL	24
1720508	Calasiao	16.0111	120.3600	0	PPLA3	24
1701692	Manibaug Pasig	15.0962	120.5644	0	PPL	24
1698740	Nagcarlan	14.1364	121.4165	0	PPLA3	24
1693401	Pio	15.0474	120.5189	0	PPL	24
1683860	Talisay	14.0925	121.0219	0	PPLA3	24
1680018	Victoria	14.2277	121.3292	0	PPLA3	24
1702263	Mamburao	13.2233	120.5960	0	PPLA3	23
1701516	Mansalay	12.5204	121.4385	0	PPLA3	23
1696165	Palayan City	15.5415	121.0848	0	PPL	23
1692184	Quiapo	14.6000	120.9833	0	PPLX	23
1727663	Bambang	16.3865	121.1066	0	PPLA3	22
1725359	Bignay Uno	13.8644	121.4879	0	PPL	22
1723822	Botolan	15.2896	120.0245	0	PPL	22
1712162	Gumaca	13.9210	122.1002	0	PPL	22
1701149	Maragondon	14.2733	120.7377	0	PPLA3	22
1699858	Mendez-Nuñez	14.1286	120.9058	0	PPLA3	22
1716618	Cuenca	13.9020	121.0521	0	PPLA3	21
1712232	Guiset East	16.0667	120.6833	0	PPL	21
1710103	Jose Pañganiban	14.2906	122.6917	0	PPL	21
1705771	Loma de Gato	14.7887	120.9989	0	PPL	21
1703116	Malanday	14.7069	121.1306	0	PPL	21
1692914	Porac	15.0711	120.5423	0	PPLA3	21
1686933	Sexmoan	14.9438	120.6229	0	PPLA3	21
1726765	Baras	14.5169	121.2658	0	PPLA3	20
1724936	Binondo	14.6000	120.9667	0	PPLX	20
1720472	Calauag	13.9575	122.2880	0	PPL	20
1712808	Goa	13.6978	123.4892	0	PPLA3	20
1690570	Sampaloc	14.5402	121.3602	0	PPL	20
1682472	Ternate	14.2897	120.7168	0	PPLA3	20
1729814	Baao	13.4549	123.3653	0	PPLA3	19
1707049	Laur	15.5865	121.1834	0	PPLA3	19
1703355	Malabanban Norte	13.9452	121.4306	0	PPL	19
1703115	Malanday	14.7169	120.9581	0	PPL	19
1695283	Pangil	14.4033	121.4651	0	PPLA3	19
1689973	San Francisco	15.3557	120.8400	0	PPL	19
1713027	General Mamerto Natividad	15.6025	121.0515	0	PPL	18
1708291	Labo	14.1532	122.8303	0	PPLA3	18
1692199	Quezon	15.5512	120.8147	0	PPLA3	18
1689099	San Marcelino	14.9742	120.1573	0	PPL	18
1688949	San Miguel	15.4440	120.5992	0	PPL	18
1725983	Bauang	16.5308	120.3331	0	PPLA3	17
1693839	Pilar	14.6600	120.5653	0	PPLA3	17
1731212	Amadeo	14.1706	120.9236	0	PPLA3	16
1726156	Bato	13.3528	123.3677	0	PPLA3	16
1720499	Calatagan	13.8322	120.6322	0	PPLA3	16
1710357	Jalajala	14.3530	121.3225	0	PPLA3	16
1699833	Mercedes	14.1093	123.0109	0	PPLA3	16
1699204	Morong	14.6789	120.2661	0	PPLA3	16
1689994	Aurora	13.3476	122.5195	0	PPL	16
1687409	San Vicente	15.2921	120.6550	0	PPL	16
1681676	Tiwi	13.4585	123.6805	0	PPLA3	16
1729734	Babo-Pangulo	15.0833	120.5167	0	PPLL	15
1725863	Bayambang	15.8127	120.4557	0	PPLA3	15
1720052	Calumpang	14.6228	121.0897	0	PPL	15
1714482	Domalanoan	16.0029	120.2115	0	PPL	15
1706402	Lilio	14.1313	121.4362	0	PPL	15
1704002	Magarao	13.6604	123.1869	0	PPLA3	15
1691904	Ramos	15.6653	120.6406	0	PPLA3	15
1691538	Romblon	12.5751	122.2708	0	PPLA3	15
1688912	San Narciso	15.0143	120.0803	0	PPLA3	15
1688372	Santa Barbara	16.0009	120.4023	0	PPLA3	15
1688248	Santa Cruz	14.9127	120.5666	0	PPL	15
1684577	Tagas	13.1667	123.7167	0	PPL	15
