id	name	lat	lon	capital	code	pop
699554	Novohuivynske	50.2082	28.6928	0	PPLA3	5
698102	Ozerne	50.1782	28.7338	0	PPL	5
708057	Hryshkivtsi	49.9363	28.6047	0	PPL	4
707465	Ivanopil	49.8606	28.2156	0	PPL	2
690164	Velyki Korovyntsi	49.9820	28.2953	0	PPL	2
7280677	Denyshi	50.2141	28.4039	0	PPL	1
