id	name	lat	lon	capital	code	pop
617904	Leova	46.4823	28.2530	0	PPLA	14
618404	Congaz	46.1074	28.5930	0	PPL	13
618406	Cimişlia	46.5269	28.7644	0	PPLA	12
678465	Fălciu	46.2961	28.1408	0	PPLA2	6
685018	Berezeni	46.3761	28.1478	0	PPLA2	5
617081	Iargara	46.4252	28.4268	0	PPL	5
864945	Vetrişoaia	46.4300	28.2083	0	PPLA2	3
618452	Cantemir	46.2774	28.2027	0	PPLA	3
667826	Satu Nou	46.3581	28.1500	0	PPL	1
618491	Bugeac	46.3655	28.6625	0	PPL	1
617118	Vişniovca	46.3326	28.4480	0	PPL	1
