id	name	lat	lon	capital	code	pop
3973594	El Capulín	21.8281	-100.0374	0	PPL	2
4023520	La Ciénega	21.3005	-100.4803	0	PPL	1
4004260	El Jabalí	21.8843	-100.0532	0	PPL	1
3984588	Xichú	21.2993	-100.0574	0	PPLA2	1
3973609	San Diego	21.9169	-100.1010	0	PPL	1
3516262	San José del Tapanco	21.7710	-99.9085	0	PPL	1
