id	name	lat	lon	capital	code	pop
8520183	Whyalla Stuart	-33.0249	137.5247	0	PPLX	6
8520165	Whyalla Norrie	-33.0290	137.5392	0	PPLX	6
2058430	Whyalla	-33.0327	137.5648	0	PPLA2	3
8520140	Whyalla Playford	-33.0279	137.5620	0	PPLX	2
8520232	Whyalla Jenkins	-33.0221	137.5127	0	PPLX	1
