id	name	lat	lon	capital	code	pop
3014334	Gueugnon	46.6036	4.0629	0	PPL	8
3031090	Bourbon-Lancy	46.6221	3.7695	0	PPL	5
3027900	Cercy-la-Tour	46.8620	3.6465	0	PPL	2
2996957	Luzy	46.7901	3.9704	0	PPL	2
3034234	Beaulon	46.6016	3.6731	0	PPL	1
3019443	Ã‰tang-sur-Arroux	46.8656	4.1899	0	PPL	1
2991474	Moulins-Engilbert	46.9882	3.8108	0	PPL	1
2987901	Perrecy-les-Forges	46.6145	4.2138	0	PPL	1
2972320	Toulon-sur-Arroux	46.6934	4.1387	0	PPL	1
