id	name	lat	lon	capital	code	pop
2078025	Adelaide	-34.9287	138.5986	0	PPLA	1387
7302628	Adelaide Hills	-34.9112	138.7073	0	PPL	60
2065740	Morphett Vale	-35.1333	138.5167	0	PPLX	24
2071059	Gawler	-34.6025	138.7490	0	PPLA2	20
11523825	Adelaide city centre	-34.9287	138.6033	0	PPLX	19
8349238	Parafield Gardens	-34.7825	138.6108	0	PPLX	16
8349003	Paralowie	-34.7570	138.6082	0	PPLX	16
