id	name	lat	lon	capital	code	pop
3924679	Vilhena	-12.7406	-60.1458	0	PPL	63
3925212	Cacoal	-11.4386	-61.4472	0	PPL	55
3470718	Barra do Bugres	-15.0725	-57.1811	0	PPL	31
3453060	Pontes e Lacerda	-15.2261	-59.3353	0	PPL	29
3924908	Pimenta Bueno	-11.6725	-61.1936	0	PPL	25
3905658	San Ignacio de Velasco	-16.3777	-60.9647	0	PPL	23
3453315	Poconé	-16.2567	-56.6228	0	PPL	21
3456137	Nova Olímpia	-14.7972	-57.2881	0	PPL	19
3464724	Diamantino	-14.4086	-56.4461	0	PPL	15
