id	name	lat	lon	capital	code	pop
6610738	Pervomayskoye	52.5989	85.2577	0	PPL	6
6640354	Stan-Bekhtemir	52.6067	85.6262	0	PPL	1
6610734	Zarya	52.5970	85.1757	0	PPL	1
1499732	Malougrenevo	52.5568	85.3391	0	PPL	1
1492034	Shubenka	52.6551	85.0986	0	PPL	1
1487997	Usyatskoye	52.5681	85.7609	0	PPL	1
