id	name	lat	lon	capital	code	pop
1491633	Smolenskoye	52.3045	85.0785	0	PPL	9
1491219	Sovetskoye	52.2856	85.4142	0	PPL	5
1491088	Srostki	52.4209	85.6992	0	PPL	3
1500614	Lesnoye	52.4693	85.2555	0	PPL	2
1487569	Verkh-Katunskoye	52.4500	85.4316	0	PPL	2
1501894	Krasnyy Yar	52.3575	85.3381	0	PPL	1
