id	name	lat	lon	capital	code	pop
1280249	Qiemo	38.1341	85.5298	0	PPLA3	18
11969451	Katang Ailieke	38.1528	85.5178	0	PPL	8
11969456	Yingwusitangcun	38.1788	85.4151	0	PPL	6
11969443	Qiongkulecun	38.0934	85.5377	0	PPL	5
11969454	Jiawa Airikecun	38.1684	85.5097	0	PPL	4
