id	name	lat	lon	capital	code	pop
518209	Novoselitskoye	44.7508	43.4369	0	PPL	8
560852	Gofitskoye	45.0792	43.0464	0	PPL	5
554064	Kalinovskoye	44.8635	42.9622	0	PPL	3
469991	Vysotskoye	45.0250	42.9064	0	PPL	3
467850	Yelizavetinskoye	45.0072	43.3494	0	PPL	3
