id	name	lat	lon	capital	code	pop
3102961	Bolszewo	54.6180	18.1759	0	PPL	7
3098686	Gościcino	54.6046	18.1549	0	PPL	5
3101693	Choczewo	54.7399	17.8918	0	PPL	1
3099125	Gniewino	54.7171	18.0166	0	PPL	1
3093478	Łęczyce	54.5941	17.8593	0	PPL	1
3090007	Orle	54.6402	18.1706	0	PPL	1
3082101	Wierzchucino	54.7880	18.0031	0	PPL	1
3094672	Krokowa	54.7792	18.1616	0	PPLA3	0
