id	name	lat	lon	capital	code	pop
3100984	Czersk	53.7959	17.9765	0	PPL	9
3102488	Brusy	53.8845	17.7179	0	PPL	4
3101170	Czarna Woda	53.8446	18.1001	0	PPL	3
3096885	Kaliska	53.9053	18.2188	0	PPL	2
3096558	Karsin	53.9077	17.9209	0	PPL	2
3093237	Lipusz	54.0981	17.7845	0	PPL	2
3099878	Dziemiany	54.0064	17.7675	0	PPL	1
3093389	Liniewo	54.0766	18.2267	0	PPL	1
3084953	Stara Kiszewa	53.9901	18.1696	0	PPL	1
3083667	Szlachta	53.7683	18.1137	0	PPL	1
