id	name	lat	lon	capital	code	pop
3083043	Tuchola	53.5879	17.8590	0	PPLA2	13
3085565	Śliwice	53.7088	18.1737	0	PPLA3	4
3102100	Bukowiec	53.4338	18.2405	0	PPL	1
3101902	Cekcyn	53.5729	18.0112	0	PPLA3	1
3098629	Gostycyn	53.4901	17.8098	0	PPLA3	1
3093161	Lniano	53.5280	18.2127	0	PPL	1
3092938	Lubiewo	53.4654	18.0299	0	PPLA3	1
3084060	Świekatowo	53.4186	18.0973	0	PPL	1
3096334	Kęsowo	53.5587	17.7158	0	PPLA3	0
3085134	Sośno	53.3892	17.6871	0	PPLA3	0
