id	name	lat	lon	capital	code	pop
704393	Krasnohorivka	48.0060	37.5097	0	PPL	14
708395	Hirnyk	48.0557	37.3731	0	PPL	10
690771	Ukrainsk	48.0982	37.3631	0	PPL	10
713176	Zalizne	48.3708	37.8855	0	PPL	4
694290	Shcherbynivka	48.3949	37.7910	0	PPL	3
689900	Verkhnotoretske	48.2219	37.8798	0	PPL	2
