id	name	lat	lon	capital	code	pop
477039	Varenikovskaya	45.1208	37.6417	0	PPL	14
509985	Petrovskaya	45.4314	37.9550	0	PPL	13
582163	Anastasiyevskaya	45.2158	37.8926	0	PPL	11
487246	Strelka	45.2063	37.2865	0	PPL	5
563618	Dzhiginka	45.1330	37.3383	0	PPL	4
560513	Golubitskaya	45.3257	37.2702	0	PPL	4
568633	Chernoyerkovskaya	45.4331	37.7686	0	PPL	3
544332	Korzhevskiy	45.1941	37.7195	0	PPL	3
466314	Yurovka	45.1147	37.4188	0	PPL	3
