id	name	lat	lon	capital	code	pop
746252	Gürgentepe	40.7899	37.6007	0	PPLA2	18
742658	Korgan	40.8247	37.3467	0	PPLA2	16
749916	Çamaş	40.9020	37.5279	0	PPLA2	10
744958	Kabataş	40.7500	37.4500	0	PPLA2	9
738444	Ulubey	40.8686	37.7540	0	PPLA2	8
741570	Mesudiye	40.4545	37.7735	0	PPLA2	6
745007	Kabadüz	40.8610	37.8847	0	PPLA2	3
