id	name	lat	lon	capital	code	pop
303642	Oğuzeli	36.9657	37.5134	0	PPLA2	11
298378	Uluyatır	36.9633	37.6936	0	PPL	3
436138	Yeşildere	36.9730	37.4949	0	PPL	2
315800	Elbeyli	36.6742	37.4667	0	PPLA2	2
301290	Sekili	36.9788	37.6717	0	PPL	2
311603	İkizce	36.8626	37.7743	0	PPL	1
316443	Doğanpınar	36.8432	37.6176	0	PPLA3	0
