id	name	lat	lon	capital	code	pop
1278458	Arang	21.1964	81.9691	0	PPL	17
1265472	Kurud	20.8307	81.7221	0	PPL	11
1271534	GariƒÅband	20.6332	82.0622	0	PPLA2	10
1276079	Bhatgaon	21.1500	81.7000	0	PPL	8
1267083	Khamharia	20.9760	82.2512	0	PPL	6
