id	name	lat	lon	capital	code	pop
2164771	Grafton	-29.6810	152.9339	0	PPL	10
2148997	South Grafton	-29.7076	152.9263	0	PPL	6
2143003	Woolgoolga	-30.1106	153.2007	0	PPL	5
11704325	Corindi Beach	-30.0167	153.1856	0	PPLX	1
8348036	Junction Hill	-29.6411	152.9249	0	PPLX	1
8219843	Waterview Heights	-29.6977	152.8392	0	PPL	1
2170190	Coutts Crossing	-29.8262	152.8916	0	PPL	1
2155848	Nana Glen	-30.1333	153.0167	0	PPL	1
