id	name	lat	lon	capital	code	pop
1258449	Rānīpur	25.2503	79.0620	0	PPL	18
1270291	Harpālpur	25.2877	79.3328	0	PPL	17
1274099	Chirgaon	25.5720	78.8143	0	PPL	14
1262715	Moth	25.7260	78.9503	0	PPL	14
1254222	Tori-Fatehpur	25.4550	79.1143	0	PPL	10
1271582	Garautha	25.5719	79.2976	0	PPL	9
1260314	Pārīchha	25.5079	78.7595	0	PPL	7
