id	name	lat	lon	capital	code	pop
1260129	Patharia	23.8992	79.1939	0	PPL	18
1256734	Sh훮hgarh	24.3136	79.1181	0	PPL	14
1256716	Sh훮hpur	23.8937	79.0507	0	PPL	13
1277671	Bakshw훮ho	24.2511	79.2862	0	PPL	9
1267680	Karr훮pur	23.9489	78.8658	0	PPL	9
