id	name	lat	lon	capital	code	pop
1279061	Alangāyam	12.6224	78.7521	0	PPL	17
1267456	Kātpādi	12.9695	79.1455	0	PPL	16
1259292	Pudūr	12.9980	79.1435	0	PPL	11
1268449	Kalavai	12.7703	79.4200	0	PPL	10
1261076	Odugattūr	12.7679	78.8830	0	PPL	8
1259893	Peranamallūr	12.5705	79.4333	0	PPL	5
