id	name	lat	lon	capital	code	pop
1264523	Madukkūr	10.4810	79.3994	0	PPL	15
1267867	Karambakkudi	10.4587	79.1410	0	PPL	12
1265933	Kottaiyūr	10.1096	78.7956	0	PPL	11
1279059	Ālangudi	10.3606	78.9849	0	PPL	10
1278409	Arimalam	10.2550	78.8840	0	PPL	8
1260693	Pallattūr	10.1461	78.8031	0	PPL	8
1268197	Kanadukattan	10.1721	78.7793	0	PPL	4
