id	name	lat	lon	capital	code	pop
5788816	Camano	48.1740	-122.5282	0	PPL	14
5807239	Port Townsend	48.1174	-122.7607	0	PPLA2	9
5811995	Stanwood	48.2412	-122.3707	0	PPL	6
7262141	Port Hadlock-Irondale	48.0327	-122.7853	0	PPL	3
5815033	Warm Beach	48.1707	-122.3646	0	PPL	2
5795025	Freeland	48.0095	-122.5260	0	PPL	2
7260833	Ault Field	48.3381	-122.6744	0	PPL	1
5800475	Langley	48.0401	-122.4063	0	PPL	1
5791132	Coupeville	48.2198	-122.6863	0	PPLA2	1
