id	name	lat	lon	capital	code	pop
3994939	Nieves	23.9961	-103.0201	0	PPLA2	5
3984558	Santa Clara	24.4750	-103.3569	0	PPL	4
4001711	La Laguna	24.2135	-103.1828	0	PPL	1
3994446	Ojitos	24.3097	-103.3461	0	PPL	1
3984012	Santa Rita	23.9442	-102.9163	0	PPL	1
