id	name	lat	lon	capital	code	pop
2519217	Corralejo	28.7308	-13.8675	0	PPL	13
2510137	Tuineje	28.3237	-14.0472	0	PPLA3	13
2521706	Antigua	28.4231	-14.0138	0	PPLA3	10
2512465	Playa Blanca	28.8643	-13.8281	0	PPL	10
6692439	El Cotillo	28.6826	-14.0064	0	PPL	1
