id	name	lat	lon	capital	code	pop
3980833	Tuzantla	19.2029	-100.5668	0	PPL	15
4015471	Carácuaro	19.0197	-101.1249	0	PPL	3
3994911	Nocupétaro	19.0439	-101.1619	0	PPL	3
3981505	Tiquicheo	18.9030	-100.7373	0	PPL	3
8859397	Paso de Núñez (Buenavista)	18.8947	-100.9467	0	PPL	1
4027096	Zacapuato	18.6687	-100.6065	0	PPL	1
