id	name	lat	lon	capital	code	pop
2893023	Kappeln	54.6612	9.9313	0	PPL	9
2624439	Augustenborg	54.9520	9.8722	0	PPL	3
2619845	Høruphav	54.9102	9.8987	0	PPL	2
2617030	Marstal	54.8562	10.5173	0	PPL	2
2939088	Damp	54.5847	10.0178	0	PPLA4	1
2921444	Gelting	54.7500	9.9000	0	PPLA4	1
2625001	Ærøskøbing	54.8880	10.4112	0	PPLA2	0
