id	name	lat	lon	capital	code	pop
3170094	Portoferraio	42.8123	10.3130	0	PPLA3	8
6534703	Campo nell'Elba	42.7480	10.2333	0	PPL	4
3170107	Porto Azzurro	42.7675	10.3972	0	PPLA3	3
3180676	Capoliveri	42.7457	10.3775	0	PPLA3	2
3173936	Marina di Campo	42.7426	10.2343	0	PPLA3	2
3173996	Marciana Marina	42.8026	10.1949	0	PPLA3	1
3169330	Rio Marina	42.8139	10.4260	0	PPLA3	1
3169347	Rio nell'Elba	42.8117	10.4009	0	PPLA3	0
