id	name	lat	lon	capital	code	pop
4279983	Sterling	38.2100	-98.2070	0	PPL	2
4279645	South Hutchinson	38.0281	-97.9403	0	PPL	2
4276265	Nickerson	38.1472	-98.0837	0	PPL	1
4273430	Inman	38.2319	-97.7734	0	PPL	1
4272727	Haven	37.8989	-97.7828	0	PPL	1
4268807	Buhler	38.1345	-97.7700	0	PPL	1
