id	name	lat	lon	capital	code	pop
565289	Donskoye	45.4552	41.9741	0	PPL	15
517813	Novotroitskaya	45.3267	41.5253	0	PPL	7
499811	Ryzdvyanyy	45.2656	41.8389	0	PPL	7
511707	Pelagiada	45.2064	42.0236	0	PPL	6
481181	Trunovskoye	45.4878	42.1358	0	PPL	6
524907	Moskovskoye	45.2842	41.9103	0	PPL	5
482742	Tishchenskoye	45.4606	41.6738	0	PPL	3
