id	name	lat	lon	capital	code	pop
555206	Ivanovskoye	44.5795	41.8764	0	PPL	7
504317	Psyzh	44.2331	42.0183	0	PPL	6
479596	Udobnaya	44.1932	41.5529	0	PPL	5
557399	Ikon-Khalk	44.3051	41.9142	0	PPL	4
584221	Adyge-Khabl	44.3343	41.9392	0	PPL	3
576695	Besleney	44.2405	41.7387	0	PPL	3
564929	Druzhba	44.1953	42.0170	0	PPL	3
