id	name	lat	lon	capital	code	pop
1682606	Taytay	10.8179	119.4985	0	PPLA3	7
1706332	Limanancong	10.9893	119.3593	0	PPL	4
1687474	San Vicente	10.5303	119.2542	0	PPLA3	4
1731450	Alemanguan	10.6118	119.3268	0	PPL	3
1712338	Guinlo	10.8009	119.4383	0	PPL	3
1726170	Bato	10.8250	119.4710	0	PPL	2
1697793	New Agutaya	10.5614	119.3078	0	PPL	2
1695594	Pancol	10.8715	119.4157	0	PPL	2
