id	name	lat	lon	capital	code	pop
7257905	Fort Drum	44.0584	-75.7619	0	PPL	12
5125461	Lowville	43.7867	-75.4918	0	PPLA2	3
5111656	Carthage	43.9781	-75.6094	0	PPL	3
5111065	Calcium	44.0217	-75.8460	0	PPL	3
5143737	West Carthage	43.9742	-75.6152	0	PPL	2
5109410	Black River	44.0126	-75.7944	0	PPL	1
