id	name	lat	lon	capital	code	pop
3674603	Momil	9.2377	-75.6749	0	PPLA2	16
3675987	Los Palmitos	9.3790	-75.2677	0	PPLA2	14
3671203	Purísima de la Concepción	9.2366	-75.7219	0	PPLA2	14
3686605	Chimá	9.1489	-75.6284	0	PPLA2	13
3669480	San Juan de Betulia	9.2735	-75.2410	0	PPLA2	9
3673142	Palmito	9.3319	-75.5417	0	PPLA2	5
3674337	Morroa	9.3335	-75.3054	0	PPLA2	4
3686065	Colosó	9.4948	-75.3527	0	PPLA2	3
3686835	Chalán	9.5477	-75.3113	0	PPLA2	2
12253454	Santa Cruz del Islote	9.7859	-75.8590	0	PPL	1
