id	name	lat	lon	capital	code	pop
3120511	Huete	40.1453	-2.6903	0	PPLA3	2
3105028	Villar de Olalla	40.0150	-2.1956	0	PPLA3	1
3105507	Villalba del Rey	40.3465	-2.6390	0	PPLA3	0
2512965	Palomares del Campo	39.9466	-2.5978	0	PPLA3	0
2511623	Saelices	39.9206	-2.8050	0	PPLA3	0
2510294	Torrejoncillo del Rey	40.0084	-2.5711	0	PPLA3	0
