id	name	lat	lon	capital	code	pop
6243927	Springlands	-41.5085	173.9373	0	PPLX	6
6243776	Picton	-41.2907	174.0080	0	PPL	4
6243928	Mayfield	-41.4983	173.9502	0	PPLX	3
2183526	Renwick	-41.5000	173.8333	0	PPL	2
2183675	Rapaura	-41.4667	173.9000	0	PPL	1
2180286	Waikawa	-41.2667	174.0500	0	PPL	1
