id	name	lat	lon	capital	code	pop
690509	Valky	49.8360	35.6122	0	PPL	10
710342	Chutove	49.7141	35.1575	0	PPLA2	6
690009	Verbivka	49.4167	35.5333	0	PPL	3
712300	Berezivka	49.4416	35.7005	0	PPL	1
690448	Varvarivka	49.5380	35.2018	0	PPL	1
