id	name	lat	lon	capital	code	pop
280328	Batroûn	34.2553	35.6581	0	PPLA2	10
277226	Baabda	33.8339	35.5442	0	PPLA	9
274499	Hrajel	34.0172	35.7924	0	PPL	8
276632	Bhamdoûn el Mhatta	33.8086	35.6597	0	PPL	5
276633	Bhamdoun	33.7950	35.6511	0	PPL	1
