id	name	lat	lon	capital	code	pop
161204	Bashanet	-4.2333	35.4167	0	PPL	19
160266	Dareda	-4.2167	35.5500	0	PPL	19
159951	Galappo	-4.2667	35.8500	0	PPL	18
151929	Nangwa	-4.4667	35.4500	0	PPL	18
160073	Endasak	-4.4167	35.5167	0	PPL	14
158178	Katesh	-4.5248	35.3849	0	PPL	4
