id	name	lat	lon	capital	code	pop
3123688	Ejea de los Caballeros	42.1263	-1.1372	0	PPLA3	17
3128009	Biota	42.2621	-1.1873	0	PPLA3	1
3126027	Cáseda	42.5226	-1.3664	0	PPLA3	1
3111157	Sádaba	42.2818	-1.2695	0	PPLA3	1
3117797	Luna	42.1676	-0.9329	0	PPLA3	0
3108656	Sos del Rey Católico	42.4969	-1.2151	0	PPLA3	0
3107275	Uncastillo	42.3596	-1.1284	0	PPLA3	0
