id	name	lat	lon	capital	code	pop
3130950	Ademuz	40.0614	-1.2868	0	PPLA3	1
3116215	Mora de Rubielos	40.2502	-0.7525	0	PPLA3	1
3109360	Sarrión	40.1418	-0.8153	0	PPLA3	1
3130615	Alcalá de la Selva	40.3718	-0.7201	0	PPLA3	0
3125529	Cedrillas	40.4371	-0.8515	0	PPLA3	0
3104796	Villastar	40.2810	-1.1514	0	PPLA3	0
