id	name	lat	lon	capital	code	pop
1538642	Sibirskiy	53.5777	83.7577	0	PPL	11
1510454	Beloyarsk	53.4461	83.9048	0	PPL	10
1508918	Borovikha	53.5072	83.8379	0	PPL	6
1495259	Pervomayskoye	53.7211	84.0183	0	PPL	5
1484956	Zudilovo	53.4927	83.8937	0	PPL	3
1493083	Sannikovo	53.3448	83.9749	0	PPL	2
6283717	Logovskoye	53.4943	84.2016	0	PPL	1
