id	name	lat	lon	capital	code	pop
486178	Suponevo	53.2049	34.2960	0	PPL	7
470473	Vygonichi	53.0998	34.0674	0	PPLA2	5
565783	Dobrun’	53.1851	34.2463	0	PPL	4
561240	Glinishchevo	53.3033	34.0716	0	PPLA2	4
856829	Putëvka	53.2583	34.2878	0	PPL	3
503248	Raditsa-Krylovka	53.3171	34.3574	0	PPL	3
