id	name	lat	lon	capital	code	pop
281165	‘Abasān al Kabīrah	31.3191	34.3400	0	PPL	18
281093	Shūkat aş Şūfī	31.2600	34.2826	0	PPL	10
281119	Khuzā‘ah	31.3068	34.3611	0	PPL	9
6967857	An Naşr	31.2814	34.3025	0	PPL	6
6967863	‘Abasān al Jadīdah	31.3416	34.3459	0	PPL	5
281160	Al Fukhkhārī	31.2928	34.3306	0	PPL	5
