id	name	lat	lon	capital	code	pop
2192362	Christchurch	-43.5333	172.6333	0	PPLA	363
2186280	Nelson	-41.2708	173.2840	0	PPLA	54
2183310	Rolleston	-43.5833	172.3833	0	PPL	29
6243926	Blenheim	-41.5160	173.9528	0	PPLA	28
2181133	Timaru	-44.3967	171.2536	0	PPL	28
6217081	Ashburton	-43.8983	171.7301	0	PPL	20
6220565	Rangiora	-43.3044	172.5836	0	PPLA2	19
2182311	Stoke	-41.3167	173.2333	0	PPL	19
2183472	Richmond	-41.3333	173.1833	0	PPLA	18
