id	name	lat	lon	capital	code	pop
935608	Les Avirons	-21.2406	55.3368	0	PPL	8
935210	Salazie	-21.0271	55.5395	0	PPL	7
935146	Les Trois-Bassins	-21.1000	55.3000	0	PPLA4	7
935975	Cilaos	-21.1364	55.4719	0	PPL	6
935915	Entre-Deux	-21.2333	55.4667	0	PPLA4	5
