id	name	lat	lon	capital	code	pop
484747	Talovskiy	51.1157	40.7257	0	PPL	13
549266	Khrenovoye	51.1183	40.2904	0	PPL	5
520599	Nizhniy Kislyay	50.8536	40.1726	0	PPL	4
543171	Kozlovka	50.8622	40.4519	0	PPL	3
492042	Sloboda	51.1421	40.3021	0	PPLX	3
