id	name	lat	lon	capital	code	pop
553427	Kamenolomni	47.6685	40.2051	0	PPLA2	12
528242	Mayskiy	47.6960	40.1026	0	PPL	12
580139	Ayutinskiy	47.7823	40.1476	0	PPL	10
484720	Talovyy	47.8077	40.1094	0	PPL	5
541288	Krasyukovskaya	47.5522	40.1088	0	PPLX	4
559736	Gornyy	47.8159	40.2036	0	PPL	2
