id	name	lat	lon	capital	code	pop
551669	Kavkazskaya	45.4453	40.6765	0	PPLA2	11
551439	Kazanskaya	45.4106	40.4361	0	PPL	10
483696	Temirgoyevskaya	45.1141	40.2803	0	PPL	8
561462	Girey	45.4012	40.6587	0	PPL	6
517767	Novoukrainskoye	45.3783	40.5297	0	PPL	5
528289	Maykopskoye	45.3936	40.7658	0	PPL	4
526296	Mirskoy	45.5439	40.3998	0	PPL	3
491158	Sokolovskoye	45.2583	40.6797	0	PPL	3
533940	Lovlinskaya	45.5161	40.2400	0	PPL	2
