id	name	lat	lon	capital	code	pop
749456	Çaykara	40.7427	40.2317	0	PPLA2	14
744767	Kalkandere	40.9205	40.4369	0	PPLA2	9
745693	Hayrat	40.8853	40.3650	0	PPLA2	8
748200	Dernekpazarı	40.7966	40.2446	0	PPLA2	6
742686	Köprübaşı	40.8069	40.1144	0	PPLA2	5
