id	name	lat	lon	capital	code	pop
711134	Burshtyn	49.2519	24.6334	0	PPL	14
709034	Halych	49.1237	24.7275	0	PPLA2	6
700793	Monastyryska	49.0906	25.1715	0	PPL	5
704914	Koropets	48.9325	25.1777	0	PPL	3
690804	Uhryniv	48.9552	24.6929	0	PPL	3
688512	Yamnytsia	48.9860	24.7096	0	PPL	3
687872	Zahvizdia	48.9227	24.6636	0	PPL	3
696966	Pidhaitsi	49.2678	25.1277	0	PPLA2	2
687088	Yezupil	49.0415	24.7810	0	PPL	2
711752	Bilshivtsi	49.1818	24.7403	0	PPL	1
