id	name	lat	lon	capital	code	pop
729636	Levski	43.3667	25.1333	0	PPL	11
727087	Slavyanovo	43.4667	24.8667	0	PPL	4
732717	Byala Cherkva	43.2000	25.3000	0	PPL	3
729646	Letnitsa	43.3117	25.0733	0	PPL	3
728056	Pordim	43.3833	24.8500	0	PPL	2
726643	Suhindol	43.1917	25.1811	0	PPL	2
