id	name	lat	lon	capital	code	pop
703494	Bilmak	47.3591	36.6533	0	PPLA2	6
695304	Rozivka	47.3954	37.0708	0	PPLA2	3
713470	Andriyivka	47.0935	36.5895	0	PPL	2
706914	Komysh-Zorya	47.3307	36.6957	0	PPL	2
692849	Temriuk	47.2651	36.9802	0	PPL	1
