id	name	lat	lon	capital	code	pop
1253512	Valabhīpur	21.8887	71.8794	0	PPL	18
1271285	Ghogha	21.6881	72.2763	0	PPL	11
1253815	Umrāla	21.8435	71.8030	0	PPL	11
1253381	Vartej	21.7395	72.0655	0	PPL	10
1272744	Dhola	21.8813	71.7727	0	PPL	8
