id	name	lat	lon	capital	code	pop
3435734	Candelaria	-27.4617	-55.7449	0	PPL	11
3437997	Hohenau	-27.0731	-55.6425	0	PPLA2	5
3439156	Carmen del Paran치	-27.2223	-56.1524	0	PPL	4
3439184	Capit치n Miranda	-27.2195	-55.7984	0	PPL	2
3436776	Trinidad	-27.1310	-55.7058	0	PPL	2
3437062	San Juan del Paran치	-27.3026	-55.9639	0	PPL	1
3435525	Cerro Cor치	-27.5138	-55.6090	0	PPL	1
