id	name	lat	lon	capital	code	pop
776092	Białowieża	52.7000	23.8667	0	PPLA3	2
773802	Czeremcha	52.5167	23.3500	0	PPLA3	2
769092	Kleszczele	52.5731	23.3254	0	PPL	1
763094	Orla	52.7055	23.3321	0	PPL	1
627659	Kamyanyuki	52.5576	23.8053	0	PPL	1
