id	name	lat	lon	capital	code	pop
762118	Piszczac	51.9812	23.3772	0	PPLA3	3
758973	Sławatycze	51.7634	23.5546	0	PPLA3	2
768846	Kodeń	51.9117	23.6030	0	PPLA3	1
755551	Wisznice	51.7892	23.2084	0	PPL	1
628968	Damachava	51.7500	23.6000	0	PPL	1
618723	Znamenka	51.8817	23.6554	0	PPL	1
758539	Sosnówka	51.7508	23.3381	0	PPLA3	0
