id	name	lat	lon	capital	code	pop
755474	Włodawa	51.5500	23.5500	0	PPLA3	13
759534	Sawin	51.2744	23.4337	0	PPL	2
697158	Pishcha	51.6093	23.8208	0	PPL	1
692039	Svitiaz	51.4821	23.8590	0	PPL	1
7534559	Ruda-Huta	51.2367	23.5949	0	PPLA3	1
771139	Hańsk	51.4129	23.3994	0	PPL	1
755118	Wola Uhruska	51.3214	23.6263	0	PPLA3	1
