id	name	lat	lon	capital	code	pop
711850	Bolekhiv	49.0648	23.8595	0	PPL	10
693658	Skole	49.0372	23.5135	0	PPLA2	6
700753	Morshyn	49.1552	23.8724	0	PPL	5
709450	Duliby	49.2312	23.8171	0	PPL	3
690745	Ulychne	49.2316	23.6461	0	PPL	3
689892	Verkhnie Synevydne	49.1031	23.5910	0	PPL	3
696989	Pidbuzh	49.3319	23.2512	0	PPL	2
693679	Skhidnytsia	49.2241	23.3525	0	PPL	2
