id	name	lat	lon	capital	code	pop
729134	Mezdra	43.1500	23.7000	0	PPL	11
725623	Varshets	43.1936	23.2868	0	PPLA2	7
729909	Krivodol	43.3744	23.4844	0	PPL	3
733058	Borovan	43.4333	23.7500	0	PPL	2
732986	Boychinovtsi	43.4722	23.3358	0	PPLA2	2
