id	name	lat	lon	capital	code	pop
5017396	Baxter	46.3433	-94.2867	0	PPL	7
5048555	Staples	46.3555	-94.7922	0	PPL	2
5039332	Nisswa	46.5205	-94.2886	0	PPL	2
5033918	Lake Shore	46.4855	-94.3606	0	PPL	1
5025001	East Gull Lake	46.4080	-94.3558	0	PPL	1
