id	name	lat	lon	capital	code	pop
4400203	Nevada	37.8392	-94.3547	0	PPLA2	8
4271690	Fort Scott	37.8398	-94.7083	0	PPLA2	7
4379322	Butler	38.2586	-94.3305	0	PPLA2	4
4405516	Rich Hill	38.0964	-94.3611	0	PPL	1
4277481	Pleasanton	38.1778	-94.7113	0	PPL	1
4275784	Mound City	38.1428	-94.8136	0	PPLA2	0
