id	name	lat	lon	capital	code	pop
4700817	Jefferson	32.7574	-94.3452	0	PPLA2	2
4684858	Daingerfield	33.0318	-94.7219	0	PPLA2	2
4716833	Ore City	32.8001	-94.7208	0	PPL	1
4707479	Lone Star	32.9440	-94.7071	0	PPL	1
4706404	Linden	33.0123	-94.3655	0	PPLA2	1
4699392	Hughes Springs	32.9985	-94.6308	0	PPL	1
