id	name	lat	lon	capital	code	pop
8858386	Poblado 10	17.2772	-94.4519	0	PPL	3
8858542	Santa María Chimalapa	16.9064	-94.6833	0	PPL	2
3801537	Cuauhtémoc	17.1015	-94.8853	0	PPL	2
8859548	Santiago Ixtaltepec	16.6883	-94.9058	0	PPL	1
3825373	Hermanos Cedillo	17.2519	-94.6113	0	PPL	1
3825367	Poblado Cinco	17.2745	-94.5515	0	PPL	1
3825344	Helio García Alfaro	17.2597	-94.2885	0	PPL	1
3800239	Lázaro Cárdenas	16.7282	-94.8598	0	PPL	1
3518279	San Miguel Chimalapa	16.7142	-94.7481	0	PPL	1
