id	name	lat	lon	capital	code	pop
2980104	Saint-Flour	45.0337	3.0930	0	PPLA3	7
2981193	Saint-Chély-d'Apcher	44.8032	3.2757	0	PPL	4
3036097	Aumont-Aubrac	44.7224	3.2839	0	PPL	1
3025983	Chaudes-Aigues	44.8546	3.0041	0	PPL	1
3008825	Laguiole	44.6845	2.8470	0	PPL	1
3003610	Le Malzieu-Ville	44.8556	3.3301	0	PPL	1
2990587	Neuvéglise	44.9281	2.9833	0	PPL	1
2987266	Pierrefort	44.9218	2.8381	0	PPL	1
2981865	Saint-Alban-sur-Limagnole	44.7811	3.3882	0	PPL	1
