id	name	lat	lon	capital	code	pop
713389	Andrushivka	50.0229	29.0202	0	PPLA3	8
696557	Popilnia	49.9532	29.4526	0	PPL	6
711382	Brusyliv	50.2845	29.5263	0	PPLA3	4
710538	Chervone	49.9511	28.8663	0	PPL	2
710681	Chornorudka	49.8428	29.0614	0	PPL	1
