id	name	lat	lon	capital	code	pop
691016	Tulchyn	48.6740	28.8685	0	PPLA2	15
691264	Trostyanets	48.5091	29.2274	0	PPL	7
711459	Bratslav	48.8232	28.9383	0	PPL	4
705837	Kyrnasivka	48.5918	28.9792	0	PPL	4
693354	Sobolivka	48.6165	29.4891	0	PPL	3
693743	Sytkivtsi	48.9093	29.1987	0	PPL	2
