id	name	lat	lon	capital	code	pop
748378	Demirtaş	40.2719	29.0983	0	PPLA3	6
749263	Cerrah	40.0712	29.4466	0	PPL	3
738372	Umurbey	40.4147	29.1831	0	PPL	3
737709	Yenice	40.0878	29.4219	0	PPL	3
308261	Keles	39.9136	29.2294	0	PPLA2	3
752188	Alanyurt	40.1088	29.5187	0	PPL	2
743256	Kirazlı	40.0996	29.0416	0	PPL	2
741335	Narlıca	40.3858	29.4811	0	PPL	2
309077	Karıncalı	39.9712	28.8589	0	PPL	2
745922	Hamzabey	40.1358	29.5264	0	PPL	1
739393	Sölöz	40.3948	29.4156	0	PPL	1
