id	name	lat	lon	capital	code	pop
301827	Sarayköy	37.9245	28.9252	0	PPLA2	18
320437	Buldan	38.0450	28.8306	0	PPLA2	14
302903	Pamukkale	37.9164	29.1173	0	PPL	10
311962	Honaz	37.7573	29.2700	0	PPLA2	7
322618	Babadağ	37.8076	28.8566	0	PPLA2	4
321637	Bekilli	38.2311	29.4197	0	PPLA2	3
324651	Akkent	38.1527	29.3789	0	PPL	2
324630	Akköy	37.9569	29.0781	0	PPLA2	2
313840	Gözler	38.1068	29.1537	0	PPL	2
313713	Güllü	38.2711	29.1045	0	PPL	2
