id	name	lat	lon	capital	code	pop
307211	Serinhisar	37.5810	29.2664	0	PPLA2	17
299575	Tavas	37.5735	29.0706	0	PPLA2	11
325426	AcÄ±payam	37.4239	29.3494	0	PPLA2	10
310789	Kale	37.4392	28.8453	0	PPLA2	7
320177	Nikfer	37.4054	29.1373	0	PPL	5
