id	name	lat	lon	capital	code	pop
5174585	Uhrichsville	40.3931	-81.3465	0	PPL	5
5169130	Saint Clairsville	40.0806	-80.9001	0	PPLA2	5
4505786	Barnesville	39.9881	-81.1765	0	PPL	4
5148855	Cadiz	40.2728	-80.9968	0	PPLA2	3
5151993	Dennison	40.3934	-81.3337	0	PPL	2
4507599	Byesville	39.9698	-81.5365	0	PPL	2
5174495	Tuscarawas	40.3948	-81.4071	0	PPL	1
5155897	Gnadenhutten	40.3584	-81.4343	0	PPL	1
5147302	Bethesda	40.0162	-81.0726	0	PPL	1
