id	name	lat	lon	capital	code	pop
4151366	Clewiston	26.7542	-80.9337	0	PPL	7
4161075	LaBelle	26.7617	-81.4384	0	PPLA2	4
12524577	Montura	26.6364	-81.1004	0	PPL	3
4169144	Port LaBelle	26.7565	-81.4051	0	PPL	3
4158091	Harlem	26.7376	-80.9509	0	PPL	2
4164836	Moore Haven	26.8331	-81.0931	0	PPLA2	1
