id	name	lat	lon	capital	code	pop
727801	Rakitovo	41.9901	24.0873	0	PPLA2	8
732285	Devin	41.7433	24.4000	0	PPL	7
732924	Bratsigovo	42.0167	24.3667	0	PPL	4
733433	Batak	41.9423	24.2184	0	PPLA2	3
733067	Borino	41.6841	24.2930	0	PPLA2	3
726612	Sarnitsa	41.7383	24.0243	0	PPLA2	3
732015	Dospat	41.6446	24.1586	0	PPLA2	2
727423	Satovcha	41.6167	23.9833	0	PPL	2
731100	Gyovren	41.6633	24.3756	0	PPL	1
