id	name	lat	lon	capital	code	pop
109223	Medina	24.4686	39.6142	0	PPLA	1300
101760	Sulţānah	24.4926	39.5857	0	PPL	946
107304	Buraydah	26.3260	43.9750	0	PPLA	745
107781	Az Zulfī	26.2995	44.8154	0	PPL	125
108435	Ar Rass	25.8694	43.4973	0	PPL	81
109131	Al Mithnab	25.8601	44.2223	0	PPL	60
110325	Ad Dawādimī	24.5077	44.3924	0	PPL	54
110250	Afif	23.9065	42.9172	0	PPL	45
109878	Al Bukayrīyah	26.1392	43.6578	0	PPL	25
