id	name	lat	lon	capital	code	pop
186301	Mombasa	-4.0547	39.6636	0	PPLA	1208
55671	Kismayo	-0.3582	42.5454	0	PPLA	234
187968	Malindi	-3.2180	40.1169	0	PPL	118
197745	Garissa	-0.4527	39.6460	0	PPLA	67
192067	Kilifi	-3.6304	39.8499	0	PPLA	46
148842	Wete	-5.0559	39.7294	0	PPLA	26
189741	Lamu	-2.2717	40.9020	0	PPLA	24
160677	Chake Chake	-5.2459	39.7666	0	PPLA	21
