id	name	lat	lon	capital	code	pop
1035025	Nacala	-14.5626	40.6854	0	PPL	225
1028918	Pemba	-12.9740	40.5177	0	PPLA	201
1052944	António Enes	-16.2325	39.9086	0	PPL	74
1037390	Mozambique	-15.0347	40.7345	0	PPL	54
921772	Moroni	-11.7022	43.2551	1	PPLC	42
1037370	Mocímboa	-11.3167	40.3500	0	PPL	27
921753	Moutsamoudou	-12.1667	44.3994	0	PPLA	23
