id	name	lat	lon	capital	code	pop
2648626	Girvan	55.2426	-4.8555	0	PPL	6
2642882	Maybole	55.3550	-4.6803	0	PPL	4
2640574	Patna	55.3641	-4.5059	0	PPL	2
10277932	Bellsbank	55.3131	-4.3987	0	PPL	1
2651575	Dalmellington	55.3242	-4.4020	0	PPL	1
