id	name	lat	lon	capital	code	pop
1255712	Sorada	19.7608	84.4300	0	PPL	15
1275132	Buguda	19.8081	84.7908	0	PPL	14
1259158	Purushottampur	19.5202	84.8851	0	PPL	14
1266422	Kodala	19.6242	84.9407	0	PPL	13
1272634	Digapahandi	19.3727	84.5718	0	PPL	11
1271621	GanjƒÅm	19.3870	85.0508	0	PPL	11
1276568	Belaguntha	19.8825	84.6380	0	PPL	10
