id	name	lat	lon	capital	code	pop
3472808	Aimorés	-19.4958	-41.0639	0	PPL	19
3471061	Baixo Guandu	-19.5189	-41.0158	0	PPL	19
3451650	Resplendor	-19.3256	-41.2553	0	PPL	15
3456445	Mutum	-19.8000	-41.4383	0	PPL	12
3460901	Itaguaçu	-19.8019	-40.8556	0	PPL	8
3460623	Itarana	-19.8739	-40.8753	0	PPL	4
3458805	Laranja da Terra	-19.8989	-41.0567	0	PPL	3
