id	name	lat	lon	capital	code	pop
3364682	Lansdowne	-33.9873	18.4975	0	PPLX	17
7302802	Rondebosch	-33.9633	18.4764	0	PPL	15
3369098	Claremont	-33.9806	18.4653	0	PPL	14
3362024	Rosebank	-33.9556	18.4742	0	PPL	10
3369056	Constantia	-34.0314	18.4183	0	PPL	6
3361618	Simon's Town	-34.1934	18.4358	0	PPL	6
7506857	Newlands	-33.9785	18.4481	0	PPL	5
3370105	Bergvliet	-34.0475	18.4525	0	PPLX	3
6942529	Sunset Beach	-33.8539	18.4923	0	PPLX	2
