id	name	lat	lon	capital	code	pop
4925311	Rensselaer	40.9367	-87.1509	0	PPLA2	5
4923745	Monticello	40.7453	-86.7647	0	PPLA2	5
4920681	Georgetown	40.7406	-86.5047	0	PPL	4
4919624	Delphi	40.5875	-86.6750	0	PPLA2	2
4925304	Remington	40.7609	-87.1509	0	PPL	1
4924578	Otterbein	40.4906	-87.0964	0	PPL	1
4923711	Monon	40.8678	-86.8789	0	PPL	1
4920380	Flora	40.5473	-86.5244	0	PPL	1
4918417	Brookston	40.6028	-86.8672	0	PPL	1
4917857	Battle Ground	40.5084	-86.8417	0	PPL	1
