id	name	lat	lon	capital	code	pop
4259640	Jasper	38.3914	-86.9311	0	PPLA2	15
4266586	Washington	38.6592	-87.1728	0	PPLA2	12
4259271	Huntingburg	38.2989	-86.9550	0	PPL	6
4260711	Loogootee	38.6770	-86.9142	0	PPL	2
4257770	French Lick	38.5489	-86.6200	0	PPL	1
4264771	Shoals	38.6664	-86.7911	0	PPLA2	0
