id	name	lat	lon	capital	code	pop
4265717	Tell City	37.9514	-86.7678	0	PPLA2	7
4297184	Knottsville	37.7717	-86.9042	0	PPL	6
4264457	Santa Claus	38.1200	-86.9142	0	PPL	2
4263856	Rockport	37.8831	-87.0494	0	PPLA2	2
4257415	Ferdinand	38.2239	-86.8622	0	PPL	2
4297979	Lewisport	37.9370	-86.9022	0	PPL	1
4294267	Hawesville	37.9001	-86.7550	0	PPLA2	1
4288101	Cloverport	37.8334	-86.6328	0	PPL	1
4256426	Dale	38.1689	-86.9900	0	PPL	1
4255457	Cannelton	37.9114	-86.7444	0	PPL	1
