id	name	lat	lon	capital	code	pop
4053050	Calera	33.1029	-86.7536	0	PPL	13
4055577	Clanton	32.8387	-86.6294	0	PPLA2	8
4076771	Montevallo	33.1007	-86.8642	0	PPL	6
4051669	Brent	32.9374	-87.1647	0	PPL	4
4093619	Thorsby	32.9157	-86.7158	0	PPL	2
4069722	Jemison	32.9599	-86.7467	0	PPL	2
4054566	Centreville	32.9462	-87.1167	0	PPLA2	2
4096956	West Blocton	33.1182	-87.1250	0	PPL	1
4089549	Shelby	33.1104	-86.5841	0	PPL	1
