id	name	lat	lon	capital	code	pop
2644501	Limavady	55.0504	-6.9507	0	PPL	12
2656488	Ballymoney	55.0708	-6.5101	0	PPL	9
2639991	Portstewart	55.1813	-6.7140	0	PPL	8
2640004	Portrush	55.1959	-6.6493	0	PPL	6
8449353	Ballintoy Harbour	55.2442	-6.3692	0	PPL	2
2656500	Ballykelly	55.0442	-7.0186	0	PPL	1
2654175	Bushmills	55.2049	-6.5192	0	PPL	1
2653554	Castlerock	55.1500	-6.7833	0	PPL	1
2650709	Dunloy	55.0110	-6.4109	0	PPL	1
2648803	Garvagh	54.9833	-6.6667	0	PPL	1
