id	name	lat	lon	capital	code	pop
2657060	Armagh	54.3500	-6.6667	0	PPLA2	14
2650729	Dungannon	54.5034	-6.7672	0	PPLA2	11
2962568	Monaghan	54.2500	-6.9667	0	PPLA	7
2652703	Coalisland	54.5418	-6.7017	0	PPL	5
2645917	Keady	54.2500	-6.7000	0	PPL	3
2636271	Tandragee	54.3549	-6.4140	0	PPL	3
2641515	Newtownhamilton	54.1907	-6.5763	0	PPL	2
2656787	Aughnacloy	54.4142	-6.9755	0	PPL	1
2648669	Gilford	54.3726	-6.3613	0	PPL	1
2642077	Moy	54.4500	-6.6667	0	PPL	1
