id	name	lat	lon	capital	code	pop
2960964	Wexford	52.3342	-6.4575	0	PPLA2	19
2962252	New Ross	52.3967	-6.9367	0	PPL	8
3302076	Ballygerry	52.2492	-6.3574	0	PPLX	1
2965645	Castlebridge	52.3864	-6.4494	0	PPL	1
2964492	Dunmore East	52.1511	-6.9987	0	PPL	1
2961690	Rosslare	52.2718	-6.3899	0	PPL	1
