id	name	lat	lon	capital	code	pop
1252490	Paro	27.4305	89.4133	0	PPLA	11
1252395	Wangdue Phodrang	27.4861	89.8992	0	PPLA	8
1252495	Pajo	27.5333	89.8833	0	PPL	3
1252610	Tsimasham	27.0989	89.5360	0	PPLA	2
1252433	Daga	27.0753	89.8769	0	PPLA	2
