id	name	lat	lon	capital	code	pop
438400	Denizciler	36.6411	36.2142	0	PPL	17
312405	Hassa	36.7994	36.5178	0	PPLA2	9
298977	Toprakkale	37.0686	36.1466	0	PPLA2	8
312504	Hasanbeyli	37.1284	36.5461	0	PPLA2	6
436507	Mahmutlar	36.9490	36.1923	0	PPLX	5
437241	Aşağı Karafakılı	36.7788	36.5578	0	PPL	1
