id	name	lat	lon	capital	code	pop
688587	Yahotyn	50.2797	31.7625	0	PPL	18
709643	Drabiv	49.9589	32.1503	0	PPL	6
693913	Shramkivka	50.1396	32.1251	0	PPL	2
711506	Boikivshchyna	49.9104	32.2501	0	PPL	1
710660	Chernyakhivka	50.2188	31.9308	0	PPL	1
