id	name	lat	lon	capital	code	pop
468587	Yavas	54.4159	42.8491	0	PPL	7
554549	Kadom	54.5591	42.4676	0	PPLA2	6
826997	Lepley	54.3092	42.8599	0	PPL	3
826996	Udarnyy	54.3409	42.8611	0	PPL	3
826995	Partsa	54.3653	42.8617	0	PPL	3
579147	Barashevo	54.5325	42.8792	0	PPL	3
