id	name	lat	lon	capital	code	pop
466989	Yessentukskaya	44.0328	42.8813	0	PPL	19
479687	Uchkeken	43.9378	42.5117	0	PPL	15
483386	Tereze	43.9361	42.4434	0	PPL	6
805755	Yasnaya Polyana	44.0225	42.7539	0	PPL	5
510842	Pervomayskoye	43.9385	42.4760	0	PPL	5
572567	Borgustanskaya	44.0547	42.5288	0	PPL	4
869259	Nezhinskiy	43.9283	42.6856	0	PPL	3
541661	Krasnyy Kurgan	43.9422	42.6108	0	PPL	3
