id	name	lat	lon	capital	code	pop
5312476	Safford	32.8340	-109.7076	0	PPLA2	9
5317170	Thatcher	32.8492	-109.7592	0	PPL	4
5316540	Swift Trail Junction	32.7298	-109.7140	0	PPL	2
5308867	Pima	32.8966	-109.8284	0	PPL	2
5288063	Cactus Flat	32.7584	-109.7162	0	PPL	1
5287938	Bylas	33.1343	-110.1200	0	PPL	1
