id	name	lat	lon	capital	code	pop
2664855	Värnamo	57.1860	14.0400	0	PPLA2	19
2712045	Gislaved	57.3044	13.5408	0	PPLA2	10
2726032	Anderstorp	57.2833	13.6333	0	PPL	5
2676644	Smålandsstenar	57.1624	13.4121	0	PPL	4
2719485	Bredaryd	57.1734	13.7379	0	PPL	1
2713964	Forsheda	57.1641	13.8302	0	PPL	1
2706435	Hillerstorp	57.3129	13.8844	0	PPL	1
2682834	Reftele	57.1747	13.5950	0	PPL	1
