id	name	lat	lon	capital	code	pop
3845202	Malagueño	-31.4647	-64.3584	0	PPL	9
3845073	Malvinas Argentinas	-31.3819	-64.0554	0	PPL	8
3859429	Despeñaderos	-31.8163	-64.2899	0	PPL	5
7304383	Cuesta Blanca	-31.4866	-64.5715	0	PPLL	3
3834251	Toledo	-31.5557	-64.0095	0	PPL	3
