id	name	lat	lon	capital	code	pop
5016024	Albert Lea	43.6480	-93.3683	0	PPLA2	17
5051902	Waseca	44.0777	-93.5074	0	PPLA2	9
5024423	Dodge Center	44.0280	-92.8546	0	PPL	2
5039144	New Richland	43.8939	-93.4938	0	PPL	1
5029658	Hayfield	43.8905	-92.8477	0	PPL	1
5018727	Blooming Prairie	43.8666	-93.0510	0	PPL	1
