id	name	lat	lon	capital	code	pop
4107641	Dardanelle	35.2231	-93.1579	0	PPL	4
4127256	Pottsville	35.2481	-93.0491	0	PPL	3
4099932	Atkins	35.2465	-92.9366	0	PPL	3
4107630	Danville	35.0540	-93.3935	0	PPL	2
4124671	Ola	35.0323	-93.2232	0	PPL	1
4119617	London	35.3290	-93.2530	0	PPL	1
4118223	Lamar	35.4406	-93.3880	0	PPL	1
4108950	Dover	35.4015	-93.1143	0	PPL	1
