id	name	lat	lon	capital	code	pop
4333533	Minden	32.6154	-93.2868	0	PPLA2	12
4342429	Springhill	33.0060	-93.4668	0	PPL	5
4327785	Homer	32.7919	-93.0550	0	PPLA2	3
4327129	Haynesville	32.9621	-93.1402	0	PPL	2
4314969	Arcadia	32.5490	-92.9202	0	PPLA2	2
4321358	Cullen	32.9690	-93.4507	0	PPL	1
