id	name	lat	lon	capital	code	pop
1856741	Miyanoura	30.4269	130.5715	0	PPL	6
1858740	Koseda	30.3880	130.6492	0	PPL	2
1848124	Yudomari	30.2347	130.4794	0	PPL	2
1858711	Koshima	30.2346	130.5352	0	PPL	1
1858272	Kurio	30.2712	130.4236	0	PPL	1
1856117	Nagata	30.3952	130.4255	0	PPL	1
