id	name	lat	lon	capital	code	pop
5083330	Berlin	44.4687	-71.1851	0	PPL	9
5085369	Deerfield	44.2306	-71.6170	0	PPL	4
5090464	Northumberland	44.5634	-71.5587	0	PPL	2
5238176	Lunenburg	44.4631	-71.6820	0	PPL	1
5094647	Whitefield	44.3731	-71.6101	0	PPL	1
5089546	Milan	44.5734	-71.1851	0	PPL	1
5088529	Lancaster	44.4890	-71.5692	0	PPLA2	1
5088090	Jefferson	44.4190	-71.4745	0	PPL	1
5086700	Gorham	44.3878	-71.1731	0	PPL	1
