id	name	lat	lon	capital	code	pop
5223505	Narragansett	41.4501	-71.4495	0	PPL	15
7257663	Wakefield-Peacedale	41.4461	-71.5004	0	PPL	8
5221384	Charlestown	41.3832	-71.6417	0	PPL	8
5223006	Kingston	41.4804	-71.5226	0	PPL	6
5222866	Jamestown	41.4971	-71.3673	0	PPL	5
5223525	Narragansett Pier	41.4323	-71.4564	0	PPL	3
5223587	New Shoreham	41.1723	-71.5578	0	PPL	1
5222665	Hope Valley	41.5076	-71.7162	0	PPL	1
