id	name	lat	lon	capital	code	pop
762120	Pisz	53.6274	21.8125	0	PPLA3	19
768785	Kolno	53.4115	21.9291	0	PPL	10
776178	Biała Piska	53.6119	22.0632	0	PPLA3	4
757386	Szczuczyn	53.5633	22.2853	0	PPLA3	3
761262	Prostki	53.6990	22.4318	0	PPL	2
758238	Stawiski	53.3799	22.1546	0	PPL	2
760697	Radziłów	53.4099	22.4099	0	PPL	1
756106	Wąsosz	53.5221	22.3192	0	PPL	1
