id	name	lat	lon	capital	code	pop
787716	Negotino	41.4846	22.0906	0	PPLA	19
791542	Demir Kapija	41.4061	22.2463	0	PPLA	4
789342	Konče	41.4951	22.3836	0	PPLA	3
787928	Miravci	41.3092	22.4364	0	PPL	2
784692	Vataša	41.4169	22.0189	0	PPL	2
734454	Prómachoi	41.0252	22.0044	0	PPL	1
734195	Sosándra	40.9989	22.0325	0	PPL	1
