id	name	lat	lon	capital	code	pop
253394	Sparta	37.0745	22.4301	0	PPLA2	16
257152	Messíni	37.0511	22.0078	0	PPLA3	6
9960216	Paralía Vérgas	37.0071	22.1568	0	PPL	1
264679	Arfará	37.1562	22.0449	0	PPL	1
264650	Áris	37.0992	22.0044	0	PPL	1
259265	Koróni	36.7953	21.9579	0	PPL	1
258011	Magoúla	37.0801	22.4047	0	PPL	1
253357	Sperchógeia	37.0740	22.0625	0	PPL	1
252891	Thouría	37.0836	22.0489	0	PPL	1
