id	name	lat	lon	capital	code	pop
1278182	Āttayyāmpatti	11.5327	78.0536	0	PPL	13
1278344	Arumbāvūr	11.3810	78.7297	0	PPL	11
1271663	Gangavalli	11.4983	78.6497	0	PPL	10
1264041	Māllūr	11.5442	78.1408	0	PPL	10
1253147	Vīraganūr	11.4761	78.7355	0	PPL	10
1276487	Belūr	11.7075	78.4144	0	PPL	9
1253719	Uppiliyapuram	11.2636	78.5139	0	PPL	6
