id	name	lat	lon	capital	code	pop
1269782	Iluppūr	10.5135	78.6236	0	PPL	12
1262905	Mohanūr	11.0594	78.1397	0	PPL	12
1254842	Tāttayyangārpettai	11.1242	78.4492	0	PPL	12
1267428	Kāttupputtūr	10.9939	78.2193	0	PPL	11
1272001	Erumaippatti	11.1467	78.2900	0	PPL	9
1263104	Mettuppālaiyam	11.1681	78.4494	0	PPL	9
1259294	Puduppatti	11.1522	78.2121	0	PPL	7
