id	name	lat	lon	capital	code	pop
2696650	Leksand	60.7303	14.9999	0	PPLA2	6
2682995	Rättvik	60.8863	15.1179	0	PPLA2	5
2676592	Smedby	60.7000	15.0500	0	PPL	3
2703547	Insjön	60.6769	15.0949	0	PPL	2
2721581	Bjursås	60.7373	15.4529	0	PPL	1
2713219	Gagnef	60.5986	15.0775	0	PPLA2	1
2679226	Siljansnäs	60.7833	14.8500	0	PPL	1
2663077	Vikarbyn	60.9167	15.0167	0	PPL	1
