id	name	lat	lon	capital	code	pop
2691743	Mjölby	58.3259	15.1236	0	PPLA2	12
2720037	Boxholm	58.1972	15.0538	0	PPLA2	3
2692748	Mantorp	58.3500	15.2833	0	PPL	3
2678266	Skänninge	58.3943	15.0866	0	PPL	3
2706543	Herrestad	58.3833	14.8000	0	PPL	2
2662996	Vikingstad	58.3830	15.4320	0	PPL	2
