id	name	lat	lon	capital	code	pop
2524379	Lipari	38.4674	14.9540	0	PPLA3	4
2525397	Canneto	38.4950	14.9604	0	PPL	2
8015337	Pianoconte	38.4743	14.9286	0	PPL	1
2524321	Malfa	38.5773	14.8360	0	PPLA3	0
2523317	Santa Marina Salina	38.5612	14.8708	0	PPLA3	0
