id	name	lat	lon	capital	code	pop
2170260	Corowa	-35.9970	146.3855	0	PPL	5
8348175	Springdale Heights	-36.0309	146.9478	0	PPLX	2
2162994	Howlong	-35.9820	146.6325	0	PPL	2
2162250	Jindera	-35.9547	146.8885	0	PPL	2
2145098	Wahgunyah	-36.0118	146.3971	0	PPL	1
