id	name	lat	lon	capital	code	pop
2156825	Morwell	-38.2348	146.3950	0	PPL	13
2157343	Moe	-38.1783	146.2610	0	PPL	8
8348181	Newborough	-38.1717	146.2926	0	PPLX	6
11704378	Hazelwood North	-38.2676	146.4829	0	PPLX	1
8539257	Yallourn North	-38.1605	146.3645	0	PPL	1
6615520	Heyfield	-37.9813	146.7856	0	PPL	1
2165321	Glengarry	-38.1167	146.5667	0	PPL	1
2151107	Rosedale	-38.1545	146.7886	0	PPL	1
