id	name	lat	lon	capital	code	pop
5181407	Bradford	41.9559	-78.6439	0	PPL	8
5206956	Port Allegany	41.8109	-78.2797	0	PPL	2
5212582	Smethport	41.8112	-78.4447	0	PPLA2	1
5212002	Shinglehouse	41.9637	-78.1908	0	PPL	1
5190117	Foster Brook	41.9751	-78.6172	0	PPL	1
5188737	Emporium	41.5114	-78.2353	0	PPLA2	1
