id	name	lat	lon	capital	code	pop
5210117	Saint Marys	41.4278	-78.5609	0	PPL	13
5211957	Shiloh	41.0417	-78.2914	0	PPL	11
5184541	Clearfield	41.0273	-78.4392	0	PPLA2	6
5215968	Treasure Lake	41.1734	-78.7159	0	PPL	3
5208292	Ridgway	41.4203	-78.7286	0	PPLA2	3
5195549	Johnsonburg	41.4906	-78.6750	0	PPL	2
5194656	Hyde	41.0026	-78.4625	0	PPL	1
