id	name	lat	lon	capital	code	pop
5193920	Hollidaysburg	40.4273	-78.3889	0	PPLA2	5
5208552	Roaring Spring	40.3359	-78.3909	0	PPL	2
5206961	Portage	40.3887	-78.6722	0	PPL	2
5179630	Bedford	40.0187	-78.5039	0	PPLA2	2
5200055	Martinsburg	40.3112	-78.3242	0	PPL	1
5188960	Everett	40.0115	-78.3734	0	PPL	1
5187745	Earlston	40.0062	-78.3700	0	PPL	1
5187508	Duncansville	40.4234	-78.4339	0	PPL	1
5184505	Claysburg	40.2967	-78.4497	0	PPL	1
5179577	Beaverdale	40.3220	-78.6970	0	PPL	1
