id	name	lat	lon	capital	code	pop
4786619	South Hill	36.7265	-78.1289	0	PPL	4
4752052	Chase City	36.7993	-78.4583	0	PPL	2
4791136	Victoria	36.9949	-78.2272	0	PPL	1
4767509	Kenbridge	36.9621	-78.1250	0	PPL	1
4752994	Clarksville	36.6240	-78.5569	0	PPL	1
4748646	Bracey	36.5996	-78.1431	0	PPL	1
4752027	Charlotte Court House	37.0565	-78.6383	0	PPLA2	0
