id	name	lat	lon	capital	code	pop
3488613	Savanna-la-Mar	18.2189	-78.1332	0	PPLA	16
3489657	Lucea	18.4509	-78.1736	0	PPLA	6
3488635	Sandy Bay	18.4485	-78.0732	0	PPL	4
3489331	Negril	18.2684	-78.3481	0	PPL	3
3489062	Petersfield	18.2616	-78.0712	0	PPL	2
3491055	Cascade	18.3975	-78.1034	0	PPL	1
