id	name	lat	lon	capital	code	pop
3653287	Pelileo	-1.3299	-78.5434	0	PPL	16
3652684	Pujilí	-0.9576	-78.6964	0	PPL	16
3651613	San Miguel de Salcedo	-1.0455	-78.5906	0	PPL	10
3660346	Baños	-1.3970	-78.4229	0	PPL	9
3653159	Píllaro	-1.1741	-78.5468	0	PPL	7
3651251	Saquisilí	-0.8399	-78.6670	0	PPL	3
