id	name	lat	lon	capital	code	pop
576663	Bessonovka	53.3097	45.0407	0	PPL	9
559643	Gorodishche	53.2775	45.7017	0	PPL	8
486048	Sursk	53.0754	45.6846	0	PPL	7
569453	Chemodanovka	53.2316	45.2474	0	PPL	5
464343	Zasechnoye	53.1092	45.0794	0	PPL	4
553203	Kanayevka	53.1078	45.5614	0	PPL	1
