id	name	lat	lon	capital	code	pop
582490	Alkhazurovo	43.0639	45.6513	0	PPL	5
558385	Martan-Chu	43.0637	45.5622	0	PPL	5
571913	Borzoy	42.8415	45.6275	0	PPL	4
555681	Itum-Kali	42.7355	45.5757	0	PPL	2
489998	Shatoy	42.8714	45.6887	0	PPL	1
