id	name	lat	lon	capital	code	pop
611694	Telavi	41.9198	45.4731	0	PPLA	19
612230	Sagarejo	41.7340	45.3315	0	PPLA2	12
615844	Akhmet’a	42.0311	45.2075	0	PPLA2	8
613071	Mart’q’opi	41.7873	45.0230	0	PPL	7
612092	Sartich’ala	41.7179	45.1757	0	PPL	6
613623	K’urdghelauri	41.9294	45.4881	0	PPL	3
611492	Ts’inandali	41.8931	45.5713	0	PPL	2
