id	name	lat	lon	capital	code	pop
2965140	Cork	51.8980	-8.4706	0	PPLA2	190
2960992	Waterford	52.2583	-7.1119	0	PPLA2	53
2964690	Douglas	51.8744	-8.4350	0	PPL	26
2961123	Tralee	52.2704	-9.7026	0	PPLA2	22
2960964	Wexford	52.3342	-6.4575	0	PPLA2	19
2966749	Ballincollig	51.8833	-8.5833	0	PPL	18
2965353	Cluain Meala	52.3550	-7.7039	0	PPLA2	17
2965715	Carrigaline	51.8117	-8.3986	0	PPL	15
