id	name	lat	lon	capital	code	pop
4032543	Lapaha	-21.1774	-175.1172	0	PPL	8
11543613	Tatakamotonga	-21.1863	-175.1245	0	PPL	3
4032623	Haveluloto	-21.1522	-175.2133	0	PPL	3
4032606	Houma	-21.1700	-175.3021	0	PPL	2
4032243	Vaini	-21.1929	-175.1768	0	PPL	2
