id	name	lat	lon	capital	code	pop
6087591	New Hamburg	43.3834	-80.6997	0	PPL	13
6942553	Paris	43.2000	-80.3833	0	PPL	12
7290516	St. George	43.2450	-80.2514	0	PPL	3
6177893	Wellesley	43.4769	-80.7621	0	PPL	3
6162007	Tavistock	43.3168	-80.8330	0	PPL	2
6106255	Plattsville	43.3079	-80.6162	0	PPL	1
5911433	Burford	43.1029	-80.4287	0	PPL	1
