id	name	lat	lon	capital	code	pop
4590184	Orangeburg	33.4918	-80.8556	0	PPLA2	13
4586196	Manning	33.6952	-80.2109	0	PPLA2	4
4572352	Brookdale	33.5068	-80.8234	0	PPL	4
4601093	Wilkinson Heights	33.5021	-80.8332	0	PPL	2
4594258	Saint Matthews	33.6649	-80.7779	0	PPLA2	2
4593797	Saint George	33.1860	-80.5756	0	PPLA2	2
4582000	Holly Hill	33.3227	-80.4137	0	PPL	1
