id	name	lat	lon	capital	code	pop
4147241	Belle Glade	26.6845	-80.6676	0	PPL	18
4167473	Pahokee	26.8201	-80.6653	0	PPL	6
4159687	Indiantown	27.0273	-80.4856	0	PPL	6
4173376	South Bay	26.6640	-80.7162	0	PPL	5
4162948	Loxahatchee Groves	26.6837	-80.2798	0	PPL	3
4147242	Belle Glade Camp	26.6576	-80.6828	0	PPL	1
