id	name	lat	lon	capital	code	pop
3707064	La Palma	7.6918	-80.1920	0	PPLA3	1
3705743	Llano de Piedra	7.6657	-80.5625	0	PPLA3	1
3700538	Tonosí	7.4072	-80.4394	0	PPLA2	1
3703349	Paritilla	7.6293	-80.1742	0	PPLA3	0
3701459	San José	7.6770	-80.2434	0	PPLA3	0
