id	name	lat	lon	capital	code	pop
3690935	Vice	-5.4167	-80.7833	0	PPLA3	12
3695788	La Legua - San Jacinto	-5.2358	-80.6593	0	PPL	7
12158744	Nuevo Sullana	-4.9211	-80.7270	0	PPL	5
3699350	Bernal	-5.4500	-80.7500	0	PPLA3	5
3691631	Tablazo Norte	-5.3840	-80.7641	0	PPL	4
