id	name	lat	lon	capital	code	pop
699620	Novodnistrovsk	48.5832	27.4366	0	PPL	10
694350	Sharhorod	48.7356	28.0846	0	PPL	7
700606	Murovani Kurylivtsi	48.7181	27.5308	0	PPL	5
690032	Vendychany	48.6152	27.7939	0	PPL	3
710741	Chernivtsi	48.5410	28.1246	0	PPL	2
705034	Kopaihorod	48.8537	27.8018	0	PPL	1
698070	Ozheve	48.5579	27.4641	0	PPL	1
690360	Vasylivka	48.5265	27.4738	0	PPL	1
