id	name	lat	lon	capital	code	pop
727921	Provadia	43.1833	27.4333	0	PPL	13
6355004	Zlatni Pyasatsi	43.2850	28.0418	0	PPL	9
732280	Devnya	43.2222	27.5694	0	PPL	8
733716	Aksakovo	43.2561	27.8210	0	PPL	7
725213	Beloslav	43.1896	27.7043	0	PPLA2	7
726591	Suvorovo	43.3306	27.5991	0	PPL	4
725679	Valchidol	43.4000	27.5500	0	PPL	3
725924	Vetrino	43.3167	27.4333	0	PPL	1
