id	name	lat	lon	capital	code	pop
728825	Nesebar	42.6592	27.7360	0	PPL	13
728108	Pomorie	42.5633	27.6299	0	PPLA2	13
731453	Dolni Chiflik	42.9930	27.7160	0	PPL	7
727434	Sarafovo	42.5608	27.5220	0	PPL	3
725816	Sveti Vlas	42.7136	27.7587	0	PPL	3
7874334	Aheloy	42.6499	27.6484	0	PPL	2
732721	Byala	42.8743	27.8886	0	PPLA2	2
728674	Obzor	42.8200	27.8801	0	PPL	2
727759	Ravda	42.6418	27.6771	0	PPL	2
733434	Bata	42.7380	27.4964	0	PPL	1
