id	name	lat	lon	capital	code	pop
3468704	Butiá	-30.1197	-51.9622	0	PPL	19
3448227	São Sebastião do Caí	-29.5867	-51.3756	0	PPL	19
3449045	São Jerônimo	-29.9592	-51.7222	0	PPL	17
3446019	Triunfo	-29.9433	-51.7181	0	PPL	14
3471425	Arroio dos Ratos	-30.0772	-51.7292	0	PPL	13
