id	name	lat	lon	capital	code	pop
3095277	Konstantynów Łódzki	51.7478	19.3256	0	PPL	17
3094370	Ksawerów	51.6829	19.4028	0	PPLA3	6
7302565	Rzgów	51.6634	19.4918	0	PPLA3	3
3104116	Andrespol	51.7278	19.6418	0	PPLA3	3
3084464	Stryków	51.9022	19.6054	0	PPLA3	3
3100327	Dobroń	51.6388	19.2454	0	PPLA3	1
3092657	Lutomiersk	51.7538	19.2110	0	PPLA3	1
3084811	Starowa Góra	51.6913	19.4837	0	PPL	1
3089421	Parzęczew	51.9485	19.2061	0	PPLA3	0
3082581	Wartkowice	51.9763	19.0018	0	PPLA3	0
