id	name	lat	lon	capital	code	pop
3060405	Dolný Kubín	49.2098	19.3034	0	PPLA2	18
3057063	Tvrdošín	49.3370	19.5560	0	PPLA2	9
3057108	Trstená	49.3610	19.6125	0	PPL	7
3058515	Nižná	49.3105	19.5243	0	PPL	4
3057212	Terchová	49.2589	19.0294	0	PPL	4
6559492	Oravská Lesná	49.3667	19.1809	0	PPL	3
3058497	Nová Bystrica	49.3450	19.0145	0	PPL	2
3058981	Lúčky	49.1294	19.4023	0	PPL	1
3058368	Oravský Podzámok	49.2594	19.3569	0	PPL	1
