id	name	lat	lon	capital	code	pop
3055601	Balassagyarmat	48.0730	19.2961	0	PPLA2	15
3056825	Veľký Krtíš	48.2106	19.3504	0	PPLA2	12
3059244	Krupina	48.3554	19.0647	0	PPLA2	7
3044809	Szécsény	48.0806	19.5202	0	PPLA2	6
3053199	Érsekvadkert	47.9962	19.2023	0	PPL	3
3047606	Nagyoroszi	48.0050	19.0905	0	PPL	2
3045804	Rimóc	48.0369	19.5301	0	PPL	1
