id	name	lat	lon	capital	code	pop
3204672	Bačka Topola	45.8152	19.6318	0	PPLA3	16
3192420	Prigrevica	45.6764	19.0881	0	PPL	5
3190335	Sonta	45.5943	19.0972	0	PPL	5
3190042	Stanišić	45.9389	19.1671	0	PPL	5
3191660	Riđica	45.9909	19.1063	0	PPL	3
3048657	Madaras	46.0587	19.2612	0	PPL	3
3201353	Doroslovo	45.6070	19.1887	0	PPL	2
3200746	Gakovo	45.9008	19.0614	0	PPL	2
3196910	Kupusina	45.7376	19.0108	0	PPL	2
3052391	Gara	46.0319	19.0428	0	PPL	2
3050475	Katymár	46.0340	19.2094	0	PPL	2
