id	name	lat	lon	capital	code	pop
694725	Shchastia	48.7378	39.2305	0	PPL	11
686956	Zymohiria	48.5853	38.9375	0	PPL	9
693469	Slov`yanoserbsk	48.6978	38.9813	0	PPL	8
713588	Oleksandrivsk	48.5861	39.1895	0	PPL	6
712515	Bile	48.4952	39.0505	0	PPL	6
695441	Rozkishne	48.4896	39.2788	0	PPL	6
694526	Sentianivka	48.6697	38.7503	0	PPL	3
691331	Trokhizbenka	48.7574	38.9651	0	PPL	2
