id	name	lat	lon	capital	code	pop
702563	Lutuhyne	48.4051	39.2268	0	PPL	17
697276	Petrovske	48.2966	38.8789	0	PPL	12
690524	Vakhrusheve	48.1512	38.7804	0	PPL	11
690629	Uspenka	48.3908	39.1628	0	PPL	8
713175	Artemivsk	48.4406	38.7320	0	PPL	7
704118	Kripenskyi	48.0771	39.0580	0	PPL	7
700977	Miusynsk	48.0775	38.9036	0	PPL	4
707002	Kamiane	48.1683	39.1654	0	PPL	3
704207	Krasnyi Kut	48.2014	38.7976	0	PPL	2
687824	Zalesnoye	48.0310	38.8093	0	PPLX	2
703270	Mariia	48.4294	39.1456	0	PPL	1
