id	name	lat	lon	capital	code	pop
527968	Medvedovskaya	45.4515	39.0249	0	PPL	16
488587	Starovelichkovskaya	45.4288	38.7326	0	PPL	13
488730	Staromyshastovskaya	45.3433	39.0761	0	PPL	10
509124	Plastunovskaya	45.2943	39.2651	0	PPL	9
517725	Novovelichkovskaya	45.2764	38.8417	0	PPL	8
583988	Agronom	45.1402	39.1948	0	PPL	3
