id	name	lat	lon	capital	code	pop
831432	Espiye	40.9470	38.7030	0	PPLA2	15
738715	Tonya	40.8840	39.2849	0	PPLA2	14
740303	Şalpazarı	40.9383	39.1901	0	PPLA2	10
738668	Torul	40.5507	39.2834	0	PPLA2	4
749421	Kürtün	40.6952	39.0947	0	PPLA2	3
748008	Doğankent	40.8075	38.9172	0	PPLA2	3
