id	name	lat	lon	capital	code	pop
7284275	Nungwi	-5.7265	39.2987	0	PPL	8
159936	Gamba	-5.9000	39.3000	0	PPL	3
157632	Kijini	-5.8500	39.3167	0	PPL	3
156589	Koani	-6.1333	39.2833	0	PPLA	2
156588	Koani Ndogo	-6.1333	39.2833	0	PPL	2
153585	Mkokotoni	-5.8751	39.2552	0	PPLA	2
