id	name	lat	lon	capital	code	pop
1269690	Irugūr	11.0178	77.0628	0	PPL	19
1253219	Vettaikkaranpudur	10.5621	76.9130	0	PPL	18
1278692	Anamalais	10.5830	76.9344	0	PPL	16
1259875	Periyapatti	10.7581	77.2709	0	PPL	10
1259853	Perūr	10.9752	76.9129	0	PPL	8
1259877	Periyanegamam	10.7432	77.1030	0	PPL	7
1273033	Dhali	10.5105	77.1881	0	PPL	6
