id	name	lat	lon	capital	code	pop
554173	Kalininskaya	45.4844	38.6622	0	PPLA2	13
488713	Staronizhestebliyevskaya	45.3832	38.4430	0	PPL	10
518540	Novomyshastovskaya	45.1991	38.5827	0	PPL	9
481275	Trudobelikovskiy	45.2685	38.1538	0	PPL	9
481604	Troitskaya	45.1349	38.1254	0	PPL	6
872144	Sovkhoznyy	45.2946	38.1138	0	PPL	3
488839	Starodzhereliyevskaya	45.4760	38.2968	0	PPL	3
