id	name	lat	lon	capital	code	pop
583785	Akhtyrskiy	44.8546	38.3031	0	PPL	19
549741	Kholmskiy	44.8469	38.3850	0	PPL	17
568785	Chernomorskiy	44.8506	38.4936	0	PPL	8
580048	Azovskaya	44.7908	38.6264	0	PPL	3
517769	Novoukrainskiy	44.8942	38.0489	0	PPL	3
