id	name	lat	lon	capital	code	pop
155076	Makuyuni	-4.7333	38.1000	0	PPL	15
151775	Ndungu	-4.3667	38.0500	0	PPL	14
152265	Mwanga	-4.8000	38.2000	0	PPL	12
149768	Soni	-4.8500	38.3667	0	PPL	12
157653	Kihurio	-4.4667	38.0667	0	PPL	8
