id	name	lat	lon	capital	code	pop
4555423	Wilburton	34.9187	-95.3091	0	PPLA2	2
4552897	Texanna	35.3473	-95.4369	0	PPL	2
4552206	Stigler	35.2537	-95.1230	0	PPLA2	2
4541748	Longtown	35.2454	-95.5128	0	PPL	2
4536031	Eufaula	35.2872	-95.5825	0	PPLA2	2
4548780	Quinton	35.1229	-95.3711	0	PPL	1
