id	name	lat	lon	capital	code	pop
4693569	Gilmer	32.7287	-94.9424	0	PPLA2	5
4719416	Pittsburg	32.9954	-94.9658	0	PPLA2	4
4711628	Mineola	32.6632	-95.4883	0	PPL	4
4742620	Winnsboro	32.9573	-95.2902	0	PPL	3
6692230	Holly Lake Ranch	32.7134	-95.1976	0	PPL	2
4721115	Quitman	32.7960	-95.4511	0	PPLA2	1
4696686	Hawkins	32.5885	-95.2041	0	PPL	1
4674337	Big Sandy	32.5838	-95.1088	0	PPL	1
