id	name	lat	lon	capital	code	pop
581357	Apatity	67.5641	33.4031	0	PPL	61
525404	Monchegorsk	67.9397	32.8739	0	PPL	49
553190	Kandalaksha	67.1512	32.4128	0	PPL	38
548391	Kirovsk	67.6148	33.6727	0	PPL	29
515698	Olenegorsk	68.1432	33.2529	0	PPL	23
543508	Kovdor	67.5662	30.4758	0	PPL	19
506762	Polyarnyye Zori	67.3661	32.4981	0	PPL	15
