id	name	lat	lon	capital	code	pop
323786	Ankara	39.9199	32.8543	1	PPLC	3517
750269	Bursa	40.1956	29.0601	0	PPLA	3101
306571	Konya	37.8713	32.4846	0	PPLA	1390
323777	Antalya	36.9081	30.6956	0	PPLA	1344
315202	Eskişehir	39.7767	30.5206	0	PPLA	898
6955677	Çankaya	39.9179	32.8627	0	PPL	792
8074174	Muratpaşa	36.8916	30.7650	0	PPLA2	450
741763	Maltepe	40.9357	29.1551	0	PPL	427
298299	Uşak	38.6735	29.4058	0	PPLA	369
317109	Denizli	37.7742	29.0875	0	PPLA	313
442301	Batikent	39.9683	32.7308	0	PPLX	300
7628419	Sultanbeyli	40.9607	29.2707	0	PPL	286
752850	Adapazarı	40.7806	30.4033	0	PPLA	286
747014	Gebze	40.8028	29.4307	0	PPLA2	281
11238838	Merkezefendi	37.8054	29.0424	0	PPLA2	280
325303	Afyonkarahisar	38.7567	30.5433	0	PPLA	251
745028	İzmit	40.7650	29.9293	0	PPLA	196
747764	Düzce	40.8389	31.1639	0	PPLA	194
307654	Kırıkkale	39.8453	33.5064	0	PPLA	186
305268	Kütahya	39.4242	29.9833	0	PPLA	185
750516	Bolu	40.7358	31.6061	0	PPLA	184
309527	Karaman	37.1811	33.2150	0	PPLA	175
311073	Isparta	37.7644	30.5522	0	PPLA	172
745169	İnegol	40.0781	29.5133	0	PPLA2	133
748208	Derince	40.7569	29.8147	0	PPLA2	125
303873	Nazilli	37.9163	28.3223	0	PPLA2	119
741385	Mustafakemalpaşa	40.0382	28.4087	0	PPLA2	101
304854	Manavgat	36.7867	31.4431	0	PPLA2	99
320392	Burdur	37.7203	30.2908	0	PPLA	95
302525	Polatlı	39.5772	32.1413	0	PPLA2	93
304184	Muğla	37.2181	28.3665	0	PPLA	92
749748	Çankırı	40.5999	33.6153	0	PPLA	90
737961	Körfez	40.7670	29.7828	0	PPLA2	90
302043	Salihli	38.4826	28.1477	0	PPLA2	88
750598	Bilecik	40.1419	29.9793	0	PPLA	74
321580	Belek	36.8628	31.0556	0	PPL	73
746958	Gemlik	40.4309	29.1597	0	PPLA2	71
738025	Yalova	40.6550	29.2769	0	PPLA	71
324490	Akşehir	38.3575	31.4164	0	PPLA2	64
748870	Çubuk	40.2386	33.0322	0	PPLA2	62
314967	Fethiye	36.6404	29.1276	0	PPLA2	60
746666	Gölcük	40.7150	29.8182	0	PPLA2	56
320879	Bolvadin	38.7111	31.0486	0	PPLA2	55
320557	Bozüyük	39.9078	30.0367	0	PPLA2	55
299545	Tavşanlı	39.5424	29.4987	0	PPLA2	52
741045	Orhangazi	40.4892	29.3089	0	PPLA2	51
301010	Seydişehir	37.4193	31.8453	0	PPLA2	51
309415	Karapınar	37.7160	33.5506	0	PPLA2	49
308024	Keskin	39.6731	33.6136	0	PPLA2	49
304013	Mut	36.6439	33.4389	0	PPLA2	49
324172	Alaşehir	38.3508	28.5172	0	PPLA2	48
305742	Kulu	39.0951	33.0799	0	PPLA2	47
317844	Çumra	37.5732	32.7745	0	PPLA2	45
744537	Karacabey	40.2132	28.3612	0	PPLA2	44
321191	Beyşehir	37.6773	31.7246	0	PPLA2	44
301116	Şereflikoçhisar	38.9393	33.5386	0	PPL	44
301911	Sandıklı	38.4647	30.2695	0	PPLA2	42
297789	Yalvaç	38.2956	31.1778	0	PPLA2	39
750637	Beypazarı	40.1675	31.9211	0	PPLA2	38
743404	Kestel	40.1983	29.2124	0	PPLA2	36
301101	Serik	36.9169	31.0989	0	PPLA2	36
745664	Hendek	40.7994	30.7481	0	PPLA2	35
316634	Dinar	38.0650	30.1656	0	PPLA2	35
319104	Çay	38.5917	31.0286	0	PPLA2	34
300791	Simav	39.0882	28.9777	0	PPLA2	34
304782	Marmaris	36.8550	28.2742	0	PPLA2	33
301539	Şarkîkaraağaç	38.0794	31.3664	0	PPLA2	32
305810	Kula	38.5473	28.6498	0	PPLA2	31
744168	Karamürsel	40.6913	29.6165	0	PPLA2	30
320533	Bucak	37.4592	30.5950	0	PPLA2	29
746940	Gerede	40.8008	32.1969	0	PPLA2	28
737611	Yenişehir	40.2644	29.6531	0	PPLA2	28
310641	Kaman	39.3575	33.7239	0	PPLA2	28
311553	Ilgın	38.2792	31.9139	0	PPLA2	27
752284	Akyurt	40.1351	33.0861	0	PPL	26
752288	Akyazı	40.6850	30.6222	0	PPLA2	25
740230	Sapanca	40.6914	30.2674	0	PPLA2	25
315720	Elmadağ	39.9208	33.2308	0	PPLA2	25
746232	Gürsu	40.2188	29.1949	0	PPLA2	24
300058	Susurluk	39.9136	28.1578	0	PPLA2	24
747135	Ferizli	40.9408	30.4858	0	PPLA2	23
743615	Kazan	40.2317	32.6839	0	PPLA2	23
741487	Mudanya	40.3753	28.8822	0	PPLA2	23
315639	Emet	39.3430	29.2585	0	PPLA2	23
745026	İznik	40.4286	29.7211	0	PPLA2	22
314716	Gediz	38.9939	29.3913	0	PPLA2	22
317241	Demirci	39.0461	28.6589	0	PPLA2	21
746898	Geyve	40.5075	30.2925	0	PPLA2	20
315621	Emirdağ	39.0197	31.1500	0	PPLA2	20
312899	Hadim	36.9878	32.4567	0	PPLA2	20
306474	Korkuteli	37.0650	30.1957	0	PPLA2	20
741347	Nallıhan	40.1859	31.3518	0	PPLA2	19
447273	Dalaman	36.7659	28.8028	0	PPLA2	19
303354	Ortaca	36.8391	28.7646	0	PPLA2	19
297564	Yatağan	37.3402	28.1428	0	PPLA2	19
301827	Sarayköy	37.9245	28.9252	0	PPLA2	18
749279	Çerkeş	40.8116	32.8936	0	PPLA2	17
743051	Kızılcahamam	40.4697	32.6506	0	PPLA2	17
322051	Banaz	38.7371	29.7519	0	PPLA2	17
316102	Dursunbey	39.5860	28.6257	0	PPLA2	17
307211	Serinhisar	37.5810	29.2664	0	PPLA2	17
6692524	Sarigerme	36.7155	28.7044	0	PPL	16
315905	Eğirdir	37.8746	30.8504	0	PPL	16
315697	Elmalı	36.7358	29.9178	0	PPLA2	16
315401	Ermenek	36.6404	32.8918	0	PPLA2	16
740881	Osmaneli	40.3572	30.0142	0	PPLA2	15
321136	Bigadiç	39.3925	28.1311	0	PPLA2	15
310907	Kadınhanı	38.2397	32.2114	0	PPLA2	15
301172	Senirkent	38.1044	30.5486	0	PPLA2	15
