id	name	lat	lon	capital	code	pop
370737	Malakal	9.5334	31.6605	0	PPLA	160
373141	Kadugli	11.0111	29.7183	0	PPLA	87
367927	Rumbek	6.8062	29.6774	0	PPLA	32
377241	Bor	6.2089	31.5586	0	PPLA	26
371466	Leer	8.3031	30.1406	0	PPL	17
365763	Tonj	7.2739	28.6775	0	PPL	17
