id	name	lat	lon	capital	code	pop
7261423	Helena Valley Southeast	46.6153	-111.9216	0	PPL	8
7261424	Helena Valley West Central	46.6629	-112.0604	0	PPL	7
7261422	Helena Valley Northwest	46.7289	-112.0627	0	PPL	3
7261421	Helena Valley Northeast	46.6988	-111.9521	0	PPL	2
5650245	East Helena	46.5897	-111.9155	0	PPL	2
7261425	Helena West Side	46.5967	-112.1130	0	PPL	1
