id	name	lat	lon	capital	code	pop
5583997	Ammon	43.4696	-111.9666	0	PPL	14
5586093	Blackfoot	43.1905	-112.3450	0	PPLA2	11
5607051	Shelley	43.3813	-112.1233	0	PPL	4
5598674	Lincoln	43.5130	-111.9644	0	PPL	3
5596741	Iona	43.5263	-111.9330	0	PPL	2
5601462	Moreland	43.2227	-112.4425	0	PPL	1
