id	name	lat	lon	capital	code	pop
5540026	Gunnison	39.1552	-111.8183	0	PPL	3
5546253	Salina	38.9577	-111.8599	0	PPL	2
5539097	Fillmore	38.9689	-112.3235	0	PPLA2	2
5550722	Centerfield	39.1252	-111.8191	0	PPL	1
5534620	Aurora	38.9222	-111.9341	0	PPL	1
