id	name	lat	lon	capital	code	pop
5745380	Pendleton	45.6721	-118.7886	0	PPLA2	16
5790562	College Place	46.0493	-118.3883	0	PPL	9
5740898	Milton-Freewater	45.9326	-118.3877	0	PPL	7
7262470	Walla Walla East	46.0518	-118.3040	0	PPL	1
5795292	Garrett	46.0521	-118.4027	0	PPL	1
5741069	Mission	45.6704	-118.6836	0	PPL	1
5711861	Athena	45.8118	-118.4905	0	PPL	1
