id	name	lat	lon	capital	code	pop
2142447	Yarrawonga	-36.0192	145.9997	0	PPL	7
2171173	Cobram	-35.9207	145.6407	0	PPL	5
2166675	Finley	-35.6550	145.5711	0	PPL	2
2156298	Mulwala	-35.9854	146.0053	0	PPL	2
2146482	Tocumwal	-35.8115	145.5692	0	PPL	2
2176780	Barooga	-35.9060	145.6959	0	PPL	1
2176065	Berrigan	-35.6588	145.8115	0	PPL	1
