id	name	lat	lon	capital	code	pop
2162658	Inverloch	-38.6266	145.7226	0	PPL	5
2160339	Leongatha	-38.4761	145.9469	0	PPL	5
2161034	Korumburra	-38.4319	145.8236	0	PPL	4
2143131	Wonthaggi	-38.6059	145.5935	0	PPL	4
2157487	Mirboo North	-38.4010	146.1613	0	PPL	2
2154826	North Wonthaggi	-38.5777	145.5930	0	PPL	2
2166271	Foster	-38.6527	146.2007	0	PPL	1
2154670	Nyora	-38.3336	145.6725	0	PPLX	1
