id	name	lat	lon	capital	code	pop
322051	Banaz	38.7371	29.7519	0	PPLA2	17
318264	Çivril	38.3014	29.7386	0	PPLA2	14
300616	Sivaslı	38.4994	29.6836	0	PPLA2	7
311994	Hocalar	38.5782	29.9677	0	PPLA2	2
307287	Kızılcasöğüt	38.6511	29.6661	0	PPL	2
301258	Selçikler	38.4984	29.6548	0	PPL	2
