id	name	lat	lon	capital	code	pop
2963370	Cill Airne	52.0598	-9.5086	0	PPL	14
2962864	Listowel	52.4464	-9.4850	0	PPL	4
2967095	Abbeyfeale	52.3814	-9.3025	0	PPL	2
2965604	Castleisland	52.2333	-9.4667	0	PPL	2
2963311	Killorglin	52.1000	-9.7833	0	PPL	2
