id	name	lat	lon	capital	code	pop
5540831	Hurricane	37.1753	-113.2900	0	PPL	15
5541061	Ivins	37.1686	-113.6794	0	PPL	7
5541693	LaVerkin	37.2011	-113.2697	0	PPL	4
5548621	Toquerville	37.2533	-113.2847	0	PPL	1
5538929	Enterprise	37.5736	-113.7191	0	PPL	1
