id	name	lat	lon	capital	code	pop
3461565	Ibirataia	-14.0669	-39.6406	0	PPL	19
3445849	Ubatã	-14.2091	-39.5264	0	PPL	15
3459876	Jitaúna	-14.0127	-39.8983	0	PPL	11
3460907	Itagi	-14.1628	-40.0061	0	PPL	10
3460837	Itagibá	-14.2836	-39.8428	0	PPL	9
