id	name	lat	lon	capital	code	pop
4281227	Wamego	39.2019	-96.3050	0	PPL	4
4278741	Saint Marys	39.1942	-96.0711	0	PPL	2
4279397	Silver Lake	39.1042	-95.8586	0	PPL	1
4278393	Rossville	39.1361	-95.9517	0	PPL	1
4267767	Auburn	38.9061	-95.8161	0	PPL	1
4267513	Alma	39.0167	-96.2892	0	PPLA2	0
