id	name	lat	lon	capital	code	pop
8858124	Crucecita	15.7689	-96.1350	0	PPL	15
3517251	Santa María Huatulco	15.8327	-96.3206	0	PPLA2	7
8858459	Sector H Tres	15.7661	-96.1469	0	PPL	2
3801758	El Coyul	15.9147	-95.8103	0	PPL	2
8859373	Cuapinolito (Azulillo)	15.8219	-96.3183	0	PPL	1
3532287	Benito Juárez	15.8818	-96.3240	0	PPL	1
3517191	Xadani	15.9482	-96.0736	0	PPL	1
3518274	San Miguel del Puerto	15.9217	-96.1750	0	PPLA2	0
