id	name	lat	lon	capital	code	pop
4264688	Shelbyville	39.5214	-85.7769	0	PPLA2	19
4256085	Connersville	39.6412	-85.1411	0	PPLA2	13
4263965	Rushville	39.6092	-85.4464	0	PPLA2	6
4259960	Knightstown	39.7956	-85.5264	0	PPL	2
4264243	Saint Paul	39.4281	-85.6283	0	PPL	1
4261628	Morristown	39.6734	-85.6986	0	PPL	1
4257898	Geneva	39.3917	-85.7200	0	PPL	1
4255339	Cambridge City	39.8126	-85.1716	0	PPL	1
