id	name	lat	lon	capital	code	pop
3620544	Camoapa	12.3838	-85.5128	0	PPLA2	16
3616349	Santo Tomás	12.0694	-85.0906	0	PPLA2	14
3620978	Acoyapa	11.9703	-85.1711	0	PPLA2	10
3616708	San Lorenzo	12.3783	-85.6665	0	PPLA2	8
3620084	El Ayote	12.1905	-85.2874	0	PPL	5
3616356	Santo Domingo	12.2644	-85.0824	0	PPLA2	5
3618482	La Libertad	12.2164	-85.1659	0	PPLA2	3
3620243	Cuapa	12.2688	-85.3821	0	PPLA2	2
3620318	Comalapa	12.2835	-85.5108	0	PPLA2	1
3616459	Santa Lucía	12.5326	-85.7107	0	PPLA2	1
