id	name	lat	lon	capital	code	pop
3622716	Nicoya	10.1504	-85.4509	0	PPL	15
3621607	Santa Cruz	10.2605	-85.5851	0	PPL	12
3624718	Belén	10.4079	-85.5884	0	PPL	2
3623454	Hojancha	10.0581	-85.4181	0	PPL	1
3622765	Nandayure	10.0333	-85.2000	0	PPL	1
3621990	Sámara	9.8815	-85.5281	0	PPL	1
