id	name	lat	lon	capital	code	pop
1735634	Kuching	1.5500	110.3333	0	PPLA	402
1626916	Singkawang	0.9093	108.9846	0	PPL	235
1735902	Sibu	2.3000	111.8167	0	PPL	198
1735339	Mukah	2.8944	112.0914	0	PPL	49
1625908	Sungai Raya	0.7000	108.9000	0	PPL	47
1631637	Pemangkat	1.1667	108.9667	0	PPL	34
1735837	Sarikei	2.1167	111.5167	0	PPL	29
1735799	Simanggang	1.2472	111.4528	0	PPL	27
