id	name	lat	lon	capital	code	pop
4534659	Cushing	35.9851	-96.7670	0	PPL	7
4531370	Bristow	35.8306	-96.3911	0	PPL	4
4532846	Chandler	35.7017	-96.8809	0	PPLA2	3
4552361	Stroud	35.7487	-96.6581	0	PPL	2
4548393	Prague	35.4867	-96.6850	0	PPL	2
4535287	Drumright	35.9884	-96.6011	0	PPL	2
4542564	Meeker	35.5034	-96.9028	0	PPL	1
4531160	Boley	35.4934	-96.4836	0	PPL	1
