id	name	lat	lon	capital	code	pop
4703958	La Grange	29.9055	-96.8766	0	PPLA2	4
4687579	Eagle Lake	29.5897	-96.3336	0	PPL	3
4682665	Columbus	29.7066	-96.5397	0	PPLA2	3
4740482	Weimar	29.7030	-96.7805	0	PPL	2
4727417	Schulenburg	29.6819	-96.9030	0	PPL	2
