id	name	lat	lon	capital	code	pop
3823806	General Miguel Alemán	18.8935	-96.7924	0	PPL	14
3529911	Cuitláhuac	18.8143	-96.7228	0	PPLA2	13
3521833	Paso del Macho	18.9710	-96.7242	0	PPLA2	13
3516563	Soledad de Doblado	19.0464	-96.4214	0	PPLA2	12
8858140	Córdoba (Santa Leticia)	18.9086	-96.9789	0	PPL	11
3532909	Amatlán de los Reyes	18.8466	-96.9159	0	PPLA2	9
11584022	El Pueblito	18.8864	-96.9695	0	PPLX	8
3529980	Cuautlapán	18.8775	-97.0229	0	PPL	7
3521825	Paso de Ovejas	19.2845	-96.4404	0	PPLA2	7
3526713	Ixhuatlán del Café	19.0512	-96.9839	0	PPLA2	6
3523040	Monte Blanco	18.9664	-97.0168	0	PPL	6
3514008	Zongolica	18.6667	-96.9971	0	PPLA2	6
3823816	Peñuela	18.8643	-96.8933	0	PPL	5
3523616	Manlio Fabio Altamirano	19.0942	-96.3335	0	PPLA2	5
3514329	Yanga	18.8329	-96.7984	0	PPLA2	5
3823859	Dos Ríos	18.9455	-97.0284	0	PPL	4
3823818	Paraje Nuevo	18.8789	-96.8607	0	PPL	4
3532197	Boca del Monte	19.1545	-96.8327	0	PPL	4
3515290	Tomatlán	19.0310	-97.0099	0	PPLA2	4
9100352	La Providencia	18.7530	-96.7709	0	PPL	3
3529918	Cuichapa	18.7715	-96.8689	0	PPLA2	3
3527345	Guadalupe	18.8156	-96.9244	0	PPL	3
3522347	Omealca	18.7473	-96.7852	0	PPLA2	3
3516477	Sumidero	18.9039	-97.0215	0	PPL	3
3515184	Totutla	19.2117	-96.9612	0	PPLA2	3
3515009	Tuxpanguillo	18.7823	-97.0128	0	PPL	3
8858677	San Francisco (Mata Clara)	18.8144	-96.7461	0	PPL	2
8858666	Fredepo	18.8806	-96.9769	0	PPL	2
8858505	Capoluca	18.8064	-97.0272	0	PPL	2
8858470	Colorines	18.8847	-96.9783	0	PPL	2
3824927	Presidio (Plan de Libres)	18.6806	-96.7719	0	PPL	2
3823853	Campo Grande	18.8230	-97.0126	0	PPL	2
3823852	Zapoapan	18.8402	-96.9930	0	PPL	2
3823815	Manuel León	18.8537	-96.8712	0	PPL	2
3823794	Palmillas	18.8152	-96.7717	0	PPL	2
3823635	Puente Jula	19.2002	-96.3483	0	PPL	2
3532575	Atoyac	18.9121	-96.7786	0	PPL	2
3522829	Naranjal	18.8107	-96.9628	0	PPLA2	2
3522460	Ocotitlán	19.0426	-96.9083	0	PPL	2
3521188	Potrero Viejo	18.8773	-96.8436	0	PPL	2
3521133	Presidio	19.0693	-96.9721	0	PPL	2
3517879	San Rafael Calería	18.9404	-96.9439	0	PPL	2
3515976	Tenenexpan	19.1410	-96.3945	0	PPL	2
3515474	Tlacotepec de Mejía	19.1895	-96.8380	0	PPLA2	2
3515310	Tolome	19.2667	-96.3947	0	PPL	2
3514660	Camarón de Tejeda	19.0217	-96.6151	0	PPLA2	2
8859836	Centro de Readaptación Social	18.8381	-96.9394	0	PPL	1
8859811	San José Independencia	18.7558	-96.9450	0	PPL	1
8859751	San Isidro Palotal	18.9442	-96.9658	0	PPL	1
8859690	General Alatriste (San Joaquín)	18.8403	-96.7936	0	PPL	1
8859638	Ejido la Piña (Maromilla)	19.0286	-96.7836	0	PPL	1
8859627	General Juan José Baz (San José del Corral)	18.8217	-96.8181	0	PPL	1
8859582	Fraccionamiento los Álamos	18.9239	-96.9753	0	PPL	1
8859423	San José de Abajo [Unidad Habitacional]	18.9197	-96.9636	0	PPL	1
8859410	El Porvenir	18.9208	-96.9258	0	PPL	1
8859365	Huixcolotla	18.6656	-96.4975	0	PPL	1
8859258	Fraccionamiento Villas de la Llave	18.9158	-96.9911	0	PPL	1
8859202	San José de Abajo	18.7758	-96.7772	0	PPL	1
8858974	Santa Lucía Potrerillo	18.9692	-97.0242	0	PPL	1
8858911	San José Neria	18.9933	-96.9992	0	PPL	1
3823855	Campo Chico	18.8364	-97.0280	0	PPL	1
3823847	Monte Salas	18.9372	-97.0183	0	PPL	1
3823837	Villa Unión	18.8544	-96.9825	0	PPL	1
3823836	San José de Tapia	18.8472	-96.9539	0	PPL	1
3823830	Rincón de Buena Vista	18.7556	-96.8686	0	PPL	1
3823828	Trapiche Viejo	18.8431	-96.9456	0	PPL	1
3823827	Veinte de Noviembre	18.8650	-96.9547	0	PPL	1
3823817	San Rafael Río Seco	18.8761	-96.8813	0	PPL	1
3823807	Ex-hacienda la Concepción	18.8485	-96.8244	0	PPL	1
3823778	Mata Naranjo	18.7775	-96.7133	0	PPL	1
3823777	Loma Angosta	18.7831	-96.6759	0	PPL	1
3823776	El Palmar	18.8033	-96.6656	0	PPL	1
3823628	Loma de los Carmona	19.1056	-96.3937	0	PPL	1
3823610	Tierra Colorada	19.2254	-96.3693	0	PPL	1
3823609	Cerro Guzmán	19.2354	-96.3786	0	PPL	1
3823595	Rincón de Barrabás	19.0059	-96.5364	0	PPL	1
3823589	San Francisco Nacaxtle	19.1108	-96.5958	0	PPL	1
3823579	Sonora	19.1122	-96.6353	0	PPL	1
3823543	Mata de Indio	19.2303	-96.8414	0	PPL	1
3823541	Coyolito	19.2278	-96.8704	0	PPL	1
3823539	Mata Obscura	19.2179	-96.8543	0	PPL	1
3823536	Chavaxtla	19.1302	-96.8305	0	PPL	1
3823532	La Palma	19.0455	-96.8275	0	PPL	1
3823530	San José Tenejapa	19.0156	-96.8431	0	PPL	1
3823525	Ixcatla	19.0753	-96.9189	0	PPL	1
3823428	Tlapala	19.2616	-96.9188	0	PPL	1
3823352	El Hatito	19.2775	-96.3936	0	PPL	1
3533424	Acazónica	19.2128	-96.5898	0	PPL	1
3532035	Buena Vista	19.0428	-96.8567	0	PPL	1
3531897	Cacahuatal	18.8310	-96.8419	0	PPL	1
3531331	Cerritos	19.1333	-96.6093	0	PPL	1
3530477	Coetzala	18.7852	-96.9170	0	PPLA2	1
3530376	Comapa	19.1640	-96.8866	0	PPLA2	1
3530155	Cotaxtla	18.8356	-96.3964	0	PPL	1
3528771	El Maguey	18.8330	-96.7343	0	PPL	1
3526734	Ixcapantla	19.0257	-96.9705	0	PPL	1
3526705	Ixpila	19.1184	-96.9668	0	PPL	1
3524557	La Tinaja	18.7608	-96.4628	0	PPL	1
3523455	Mata Tenatito (Casco Hacienda)	18.7219	-96.6629	0	PPL	1
3522435	Ohuapan	19.2508	-96.9869	0	PPL	1
3516617	Sochiapa	19.1929	-96.9399	0	PPLA2	1
3516189	Tecama	19.0038	-96.9853	0	PPL	1
3516012	Tenampa	19.2488	-96.8839	0	PPLA2	1
3515907	Tepatlaxco	19.0693	-96.8448	0	PPLA2	1
3515750	Santa María Tatetla	19.2728	-96.7125	0	PPL	1
3515405	Tlamatoca	19.0934	-96.9369	0	PPL	1
3523603	Colonia Manuel González	19.1150	-96.8594	0	PPLA2	0
