id	name	lat	lon	capital	code	pop
4048888	Red Chute	32.5560	-93.6132	0	PPL	6
4671576	Atlanta	33.1137	-94.1643	0	PPL	5
4323488	Eastwood	32.5563	-93.5671	0	PPL	4
4344697	Vivian	32.8715	-93.9874	0	PPL	3
4317201	Blanchard	32.5810	-93.8927	0	PPL	2
4316471	Benton	32.6949	-93.7418	0	PPLA2	2
