id	name	lat	lon	capital	code	pop
4700731	Jasper	30.9202	-93.9966	0	PPLA2	7
4714713	Newton	30.8485	-93.7574	0	PPLA2	2
4726133	Sam Rayburn	31.0641	-94.0357	0	PPL	1
4697054	Hemphill	31.3407	-93.8469	0	PPLA2	1
4333163	Merryville	30.7544	-93.5405	0	PPL	1
