id	name	lat	lon	capital	code	pop
3802196	Villa la Venta	18.0986	-94.0459	0	PPL	8
8858619	Poblado C-21 Licenciado Benito Juárez García	18.0678	-93.5614	0	PPL	2
3802235	Poblado C-11 José María Morelos y Pavón	18.1742	-93.6236	0	PPL	2
3532219	Blasillo 1ra. Sección (Nicolás Bravo)	18.0786	-93.9183	0	PPL	2
3515281	Tonalá	18.2071	-94.1417	0	PPL	2
8859059	Encrucijada 3ra. Sección (Las Calzadas)	18.2549	-93.5562	0	PPL	1
8858830	Pejelagartero 1ra. Sección (Plataforma)	18.0550	-93.8247	0	PPL	1
3802224	Palo Mulato	18.0204	-93.7694	0	PPL	1
