id	name	lat	lon	capital	code	pop
3983312	Saucillo	28.0306	-105.2938	0	PPLA2	11
8858314	Colonia Revoluci칩n	28.2417	-105.4436	0	PPL	3
8858455	Miguel Hidalgo	28.1536	-105.3939	0	PPL	2
3999161	Las Varas	28.1566	-105.3406	0	PPL	2
4013481	Colonia Abraham Gonz치lez (La Quemada)	28.2067	-105.4075	0	PPL	1
4013030	Estaci칩n Conchos	27.9733	-105.2884	0	PPL	1
4002731	La Cruz	27.8636	-105.1960	0	PPLA2	1
3988943	Orrante침o	28.1827	-105.3377	0	PPL	1
3981853	Colonia Terrazas	28.2380	-105.4653	0	PPL	1
