id	name	lat	lon	capital	code	pop
3981391	Tomatlán	19.9366	-105.2501	0	PPLA2	9
8858536	José María Pino Suárez (Nuevo Nahuapa)	19.9489	-105.3278	0	PPL	2
4015974	Campo Acosta	19.7706	-105.2492	0	PPL	2
4003867	José María Morelos	19.6780	-105.1847	0	PPL	2
4006822	Emiliano Zapata	19.3860	-104.9653	0	PPL	1
